time         , active       , control_mode , commmand_nav , roll         , pitch        , yaw          , altitude     , airspeed     , yaw_nav      , yaw_error    , altitude_nav , roll_L1      , pitch_TECS   , throttle_TECS, aileron_rc   , elevator_rc  , rudder_rc    , throttle_rc  , aileron      , elevator     , rudder       , throttle     , debug1       , debug2       , debug3       , debug4       
741032000.0000, 0.0000       , 10.0000      , 22.0000      , 0.0016       , 0.0216       , -2.7057      , -0.0000      , 0.0003       , 0.4358       , 0.0000       , 0.0000       , 0.0000       , 0.0871       , 0.0000       , -4500.0000   , -4500.0000   , -4500.0000   , 100.0000     , -0.0016      , -0.0022      , -0.0008      , 5.0000       , 0.0000       , -0.0016      0.0000       , 49.9997      , 
741048000.0000, 0.0000       , 10.0000      , 22.0000      , 0.0016       , 0.0216       , -2.7057      , -0.0000      , 0.0003       , -2.7057      , 0.0000       , 0.0000       , 0.0000       , 0.0871       , 0.0000       , -4500.0000   , -4500.0000   , -4500.0000   , 100.0000     , -0.0016      , -0.0022      , -0.0008      , 5.0000       , 0.0000       , -0.0016      0.0000       , 49.9997      , 
741065984.0000, 0.0000       , 10.0000      , 22.0000      , 0.0016       , 0.0216       , -2.7057      , -0.0000      , 0.0003       , -2.7057      , 0.0000       , 0.0000       , 0.0000       , 0.0871       , 0.0000       , -4500.0000   , -4500.0000   , -4500.0000   , 100.0000     , -0.0016      , -0.0022      , -0.0008      , 5.0000       , 0.0000       , -0.0016      0.0000       , 49.9997      , 
741091008.0000, 0.0000       , 10.0000      , 22.0000      , 0.0016       , 0.0216       , -2.7057      , -0.0000      , 0.0003       , -2.7057      , 0.0000       , 0.0000       , 0.0000       , 0.0871       , 0.0000       , -4500.0000   , -4500.0000   , -4500.0000   , 100.0000     , -0.0016      , -0.0022      , -0.0008      , 5.0000       , 0.0000       , -0.0016      0.0000       , 49.9997      , 
741110976.0000, 0.0000       , 10.0000      , 22.0000      , 0.0016       , 0.0216       , -2.7057      , -0.0000      , 0.0004       , -2.7057      , 0.0000       , 0.0000       , 0.0000       , 0.0871       , 0.0000       , -4500.0000   , -4500.0000   , -4500.0000   , 100.0000     , -0.0016      , -0.0022      , -0.0008      , 5.0000       , 0.0000       , -0.0016      0.0000       , 49.9996      , 
741132032.0000, 0.0000       , 10.0000      , 22.0000      , 0.0016       , 0.0216       , -2.7057      , -0.0000      , 0.0004       , -2.7057      , 0.0000       , 0.0000       , 0.0000       , 0.0871       , 0.0000       , -4500.0000   , -4500.0000   , -4500.0000   , 100.0000     , -0.0016      , -0.0022      , -0.0008      , 5.0000       , 0.0000       , -0.0016      0.0000       , 49.9996      , 
741152000.0000, 0.0000       , 10.0000      , 22.0000      , 0.0016       , 0.0216       , -2.7057      , -0.0000      , 0.0005       , -2.7057      , 0.0000       , 0.0000       , 0.0000       , 0.0871       , 0.0000       , -4500.0000   , -4500.0000   , -4500.0000   , 100.0000     , -0.0016      , -0.0022      , -0.0008      , 5.0000       , 0.0000       , -0.0016      0.0000       , 49.9995      , 
741171008.0000, 0.0000       , 10.0000      , 22.0000      , 0.0016       , 0.0216       , -2.7057      , -0.0000      , 0.0007       , -2.7057      , 0.0000       , 0.0000       , 0.0000       , 0.0871       , 0.0000       , -4500.0000   , -4500.0000   , -4500.0000   , 100.0000     , -0.0016      , -0.0022      , -0.0008      , 4.9999       , 0.0000       , -0.0016      0.0000       , 49.9993      , 
741195008.0000, 0.0000       , 10.0000      , 22.0000      , 0.0016       , 0.0217       , -2.7057      , -0.0000      , 0.0009       , -2.7057      , 0.0000       , 0.0000       , 0.0000       , 0.0871       , 0.0000       , -4500.0000   , -4500.0000   , -4500.0000   , 100.0000     , -0.0016      , -0.0022      , -0.0008      , 4.9999       , 0.0000       , -0.0016      0.0000       , 49.9991      , 
741225024.0000, 0.0000       , 10.0000      , 22.0000      , 0.0015       , 0.0217       , -2.7057      , -0.0000      , 0.0011       , -2.7057      , 0.0000       , 0.0000       , 0.0000       , 0.0871       , 0.0000       , -4500.0000   , -4500.0000   , -4500.0000   , 100.0000     , -0.0015      , -0.0022      , -0.0008      , 4.9999       , 0.0000       , -0.0015      0.0000       , 49.9989      , 
741249984.0000, 0.0000       , 10.0000      , 22.0000      , 0.0015       , 0.0217       , -2.7057      , -0.0000      , 0.0012       , -2.7057      , 0.0000       , 0.0000       , 0.0000       , 0.0871       , 0.0000       , -4500.0000   , -4500.0000   , -4500.0000   , 100.0000     , -0.0015      , -0.0022      , -0.0008      , 4.9999       , 0.0000       , -0.0015      0.0000       , 49.9988      , 
741251968.0000, 0.0000       , 10.0000      , 22.0000      , 0.0015       , 0.0217       , -2.7057      , -0.0000      , 0.0012       , -2.7057      , 0.0000       , 0.0000       , 0.0000       , 0.0871       , 0.0000       , -4500.0000   , -4500.0000   , -4500.0000   , 100.0000     , -0.0015      , -0.0022      , -0.0008      , 4.9999       , 0.0000       , -0.0015      0.0000       , 49.9988      , 
741272000.0000, 0.0000       , 10.0000      , 22.0000      , 0.0015       , 0.0217       , -2.7057      , -0.0000      , 0.0013       , -2.7057      , 0.0000       , 0.0000       , 0.0000       , 0.0871       , 0.0000       , -4500.0000   , -4500.0000   , -4500.0000   , 100.0000     , -0.0015      , -0.0022      , -0.0008      , 4.9999       , 0.0000       , -0.0015      0.0000       , 49.9987      , 
741291008.0000, 0.0000       , 10.0000      , 22.0000      , 0.0015       , 0.0217       , -2.7057      , -0.0000      , 0.0014       , -2.7057      , 0.0000       , 0.0000       , 0.0000       , 0.0871       , 0.0000       , -4500.0000   , -4500.0000   , -4500.0000   , 100.0000     , -0.0015      , -0.0022      , -0.0008      , 4.9999       , 0.0000       , -0.0015      0.0000       , 49.9986      , 
741312000.0000, 0.0000       , 10.0000      , 22.0000      , 0.0015       , 0.0218       , -2.7056      , -0.0000      , 0.0015       , -2.7057      , 0.0000       , 0.0000       , 0.0000       , 0.0871       , 0.0000       , -4500.0000   , -4500.0000   , -4500.0000   , 100.0000     , -0.0015      , -0.0022      , -0.0008      , 4.9999       , 0.0000       , -0.0015      0.0000       , 49.9985      , 
741334016.0000, 0.0000       , 10.0000      , 22.0000      , 0.0015       , 0.0218       , -2.7056      , -0.0000      , 0.0016       , -2.7057      , 0.0000       , 0.0000       , 0.0000       , 0.0871       , 0.0000       , -4500.0000   , -4500.0000   , -4500.0000   , 100.0000     , -0.0015      , -0.0022      , -0.0008      , 4.9998       , 0.0000       , -0.0015      0.0000       , 49.9984      , 
741361024.0000, 0.0000       , 10.0000      , 22.0000      , 0.0015       , 0.0218       , -2.7056      , -0.0000      , 0.0016       , -2.7056      , 0.0000       , 0.0000       , 0.0000       , 0.0871       , 0.0000       , -4500.0000   , -4500.0000   , -4500.0000   , 100.0000     , -0.0015      , -0.0022      , -0.0008      , 4.9998       , 0.0000       , -0.0015      0.0000       , 49.9984      , 
741384000.0000, 0.0000       , 10.0000      , 22.0000      , 0.0015       , 0.0218       , -2.7056      , -0.0000      , 0.0016       , -2.7056      , 0.0000       , 0.0000       , 0.0000       , 0.0871       , 0.0000       , -4500.0000   , -4500.0000   , -4500.0000   , 100.0000     , -0.0015      , -0.0022      , -0.0008      , 4.9998       , 0.0000       , -0.0015      0.0000       , 49.9984      , 
741401984.0000, 0.0000       , 10.0000      , 22.0000      , 0.0015       , 0.0219       , -2.7056      , -0.0100      , 0.0016       , -2.7056      , 0.0000       , 0.0000       , 0.0000       , 0.0871       , 0.0000       , -4500.0000   , -4500.0000   , -4500.0000   , 100.0000     , -0.0015      , 0.0008       , -0.0008      , 4.9998       , 0.0000       , -0.0015      0.0300       , 49.9984      , 
741430976.0000, 0.0000       , 10.0000      , 22.0000      , 0.0015       , 0.0219       , -2.7056      , -0.0100      , 0.0016       , -2.7056      , 0.0000       , 0.0000       , 0.0000       , 0.0871       , 0.0000       , -4500.0000   , -4500.0000   , -4500.0000   , 100.0000     , -0.0015      , 0.0008       , -0.0008      , 4.9998       , 0.0000       , -0.0015      0.0300       , 49.9984      , 
741433024.0000, 0.0000       , 10.0000      , 22.0000      , 0.0015       , 0.0219       , -2.7056      , -0.0100      , 0.0016       , -2.7056      , 0.0000       , 0.0000       , 0.0000       , 0.0871       , 0.0000       , -4500.0000   , -4500.0000   , -4500.0000   , 100.0000     , -0.0015      , 0.0008       , -0.0008      , 4.9998       , 0.0000       , -0.0015      0.0300       , 49.9984      , 
741459008.0000, 0.0000       , 10.0000      , 22.0000      , 0.0015       , 0.0219       , -2.7056      , -0.0100      , 0.0016       , -2.7056      , 0.0000       , 0.0000       , 0.0000       , 0.0871       , 0.0000       , -4500.0000   , -4500.0000   , -4500.0000   , 100.0000     , -0.0015      , 0.0008       , -0.0008      , 4.9998       , 0.0000       , -0.0015      0.0300       , 49.9984      , 
741484992.0000, 0.0000       , 10.0000      , 22.0000      , 0.0015       , 0.0219       , -2.7055      , -0.0100      , 0.0015       , -2.7056      , 0.0000       , 0.0000       , 0.0000       , 0.0871       , 0.0000       , -4500.0000   , -4500.0000   , -4500.0000   , 100.0000     , -0.0015      , 0.0008       , -0.0008      , 4.9998       , 0.0000       , -0.0015      0.0300       , 49.9985      , 
741505984.0000, 0.0000       , 10.0000      , 22.0000      , 0.0015       , 0.0219       , -2.7055      , -0.0100      , 0.0015       , -2.7056      , 0.0000       , 0.0000       , 0.0000       , 0.0871       , 0.0000       , -4500.0000   , -4500.0000   , -4500.0000   , 100.0000     , -0.0015      , 0.0008       , -0.0008      , 4.9999       , 0.0000       , -0.0015      0.0300       , 49.9985      , 
741537984.0000, 0.0000       , 10.0000      , 22.0000      , 0.0015       , 0.0220       , -2.7055      , -0.0100      , 0.0014       , -2.7056      , 0.0000       , 0.0000       , 0.0000       , 0.0871       , 0.0000       , -4500.0000   , -4500.0000   , -4500.0000   , 100.0000     , -0.0015      , 0.0008       , -0.0008      , 4.9999       , 0.0000       , -0.0015      0.0300       , 49.9986      , 
741566976.0000, 0.0000       , 10.0000      , 22.0000      , 0.0015       , 0.0220       , -2.7055      , -0.0100      , 0.0012       , -2.7056      , 0.0000       , 0.0000       , 0.0000       , 0.0871       , 0.0000       , -4500.0000   , -4500.0000   , -4500.0000   , 100.0000     , -0.0015      , 0.0008       , -0.0008      , 4.9999       , 0.0000       , -0.0015      0.0300       , 49.9987      , 
741568000.0000, 0.0000       , 10.0000      , 22.0000      , 0.0015       , 0.0220       , -2.7055      , -0.0100      , 0.0012       , -2.7055      , 0.0000       , 0.0000       , 0.0000       , 0.0871       , 0.0000       , -4500.0000   , -4500.0000   , -4500.0000   , 100.0000     , -0.0015      , 0.0008       , -0.0008      , 4.9999       , 0.0000       , -0.0015      0.0300       , 49.9987      , 
741588992.0000, 0.0000       , 10.0000      , 22.0000      , 0.0015       , 0.0220       , -2.7055      , -0.0100      , 0.0012       , -2.7055      , 0.0000       , 0.0000       , 0.0000       , 0.0871       , 0.0000       , -4500.0000   , -4500.0000   , -4500.0000   , 100.0000     , -0.0015      , 0.0008       , -0.0008      , 4.9999       , 0.0000       , -0.0015      0.0300       , 49.9988      , 
741609024.0000, 0.0000       , 10.0000      , 22.0000      , 0.0015       , 0.0220       , -2.7055      , -0.0100      , 0.0011       , -2.7055      , 0.0000       , 0.0000       , 0.0000       , 0.0871       , 0.0000       , -4500.0000   , -4500.0000   , -4500.0000   , 100.0000     , -0.0015      , 0.0008       , -0.0008      , 4.9999       , 0.0000       , -0.0015      0.0300       , 49.9989      , 
741628992.0000, 0.0000       , 10.0000      , 22.0000      , 0.0015       , 0.0220       , -2.7055      , -0.0100      , 0.0010       , -2.7055      , 0.0000       , 0.0000       , 0.0000       , 0.0871       , 0.0000       , -4500.0000   , -4500.0000   , -4500.0000   , 100.0000     , -0.0015      , 0.0008       , -0.0008      , 4.9999       , 0.0000       , -0.0015      0.0300       , 49.9990      , 
741684992.0000, 0.0000       , 10.0000      , 22.0000      , 0.0015       , 0.0220       , -2.7055      , -0.0100      , 0.0008       , -2.7055      , 0.0000       , 0.0000       , 0.0000       , 0.0871       , 0.0000       , -4500.0000   , -4500.0000   , -4500.0000   , 100.0000     , -0.0015      , 0.0008       , -0.0008      , 4.9999       , 0.0000       , -0.0015      0.0300       , 49.9992      , 
741729984.0000, 0.0000       , 10.0000      , 22.0000      , 0.0015       , 0.0221       , -2.7055      , -0.0100      , 0.0006       , -2.7055      , 0.0000       , 0.0000       , 0.0000       , 0.0871       , 0.0000       , -4500.0000   , -4500.0000   , -4500.0000   , 100.0000     , -0.0015      , 0.0008       , -0.0008      , 4.9999       , 0.0000       , -0.0015      0.0300       , 49.9994      , 
741766976.0000, 0.0000       , 10.0000      , 22.0000      , 0.0015       , 0.0221       , -2.7055      , -0.0100      , 0.0005       , -2.7055      , 0.0000       , 0.0000       , 0.0000       , 0.0871       , 0.0000       , -4500.0000   , -4500.0000   , -4500.0000   , 100.0000     , -0.0015      , 0.0008       , -0.0008      , 5.0000       , 0.0000       , -0.0015      0.0300       , 49.9995      , 
741814016.0000, 0.0000       , 10.0000      , 22.0000      , 0.0015       , 0.0221       , -2.7055      , -0.0100      , 0.0003       , -2.7055      , 0.0000       , 0.0000       , 0.0000       , 0.0871       , 0.0000       , -4500.0000   , -4500.0000   , -4500.0000   , 100.0000     , -0.0015      , 0.0008       , -0.0008      , 5.0000       , 0.0000       , -0.0015      0.0300       , 49.9997      , 
741816000.0000, 0.0000       , 10.0000      , 22.0000      , 0.0015       , 0.0221       , -2.7055      , -0.0100      , 0.0003       , -2.7055      , 0.0000       , 0.0000       , 0.0000       , 0.0871       , 0.0000       , -4500.0000   , -4500.0000   , -4500.0000   , 100.0000     , -0.0015      , 0.0008       , -0.0008      , 5.0000       , 0.0000       , -0.0015      0.0300       , 49.9997      , 
741844992.0000, 0.0000       , 10.0000      , 22.0000      , 0.0015       , 0.0221       , -2.7055      , -0.0100      , 0.0002       , -2.7055      , 0.0000       , 0.0000       , 0.0000       , 0.0871       , 0.0000       , -4500.0000   , -4500.0000   , -4500.0000   , 100.0000     , -0.0015      , 0.0008       , -0.0008      , 5.0000       , 0.0000       , -0.0015      0.0300       , 49.9998      , 
741854976.0000, 0.0000       , 10.0000      , 22.0000      , 0.0015       , 0.0221       , -2.7055      , -0.0100      , 0.0002       , -2.7055      , 0.0000       , 0.0000       , 0.0000       , 0.0871       , 0.0000       , -4500.0000   , -4500.0000   , -4500.0000   , 100.0000     , -0.0015      , 0.0008       , -0.0008      , 5.0000       , 0.0000       , -0.0015      0.0300       , 49.9998      , 
741875008.0000, 0.0000       , 10.0000      , 22.0000      , 0.0015       , 0.0221       , -2.7055      , -0.0100      , 0.0002       , -2.7055      , 0.0000       , 0.0000       , 0.0000       , 0.0871       , 0.0000       , -4500.0000   , -4500.0000   , -4500.0000   , 100.0000     , -0.0015      , 0.0008       , -0.0008      , 5.0000       , 0.0000       , -0.0015      0.0300       , 49.9998      , 
741932992.0000, 0.0000       , 10.0000      , 22.0000      , 0.0015       , 0.0221       , -2.7055      , -0.0100      , 0.0002       , -2.7055      , 0.0000       , 0.0000       , 0.0000       , 0.0871       , 0.0000       , -4500.0000   , -4500.0000   , -4500.0000   , 100.0000     , -0.0015      , 0.0008       , -0.0008      , 5.0000       , 0.0000       , -0.0015      0.0300       , 49.9998      , 
741934976.0000, 0.0000       , 10.0000      , 22.0000      , 0.0015       , 0.0221       , -2.7055      , -0.0100      , 0.0002       , -2.7055      , 0.0000       , 0.0000       , 0.0000       , 0.0871       , 0.0000       , -4500.0000   , -4500.0000   , -4500.0000   , 100.0000     , -0.0015      , 0.0008       , -0.0008      , 5.0000       , 0.0000       , -0.0015      0.0300       , 49.9998      , 
741956992.0000, 0.0000       , 10.0000      , 22.0000      , 0.0015       , 0.0221       , -2.7055      , -0.0100      , 0.0003       , -2.7055      , 0.0000       , 0.0000       , 0.0000       , 0.0871       , 0.0000       , -4500.0000   , -4500.0000   , -4500.0000   , 100.0000     , -0.0015      , 0.0008       , -0.0008      , 5.0000       , 0.0000       , -0.0015      0.0300       , 49.9997      , 
741974016.0000, 0.0000       , 10.0000      , 22.0000      , 0.0015       , 0.0221       , -2.7055      , -0.0100      , 0.0003       , -2.7055      , 0.0000       , 0.0000       , 0.0000       , 0.0871       , 0.0000       , -4500.0000   , -4500.0000   , -4500.0000   , 100.0000     , -0.0015      , 0.0008       , -0.0008      , 5.0000       , 0.0000       , -0.0015      0.0300       , 49.9997      , 
741993984.0000, 0.0000       , 10.0000      , 22.0000      , 0.0015       , 0.0221       , -2.7055      , -0.0100      , 0.0003       , -2.7055      , 0.0000       , 0.0000       , 0.0000       , 0.0871       , 0.0000       , -4500.0000   , -4500.0000   , -4500.0000   , 100.0000     , -0.0015      , 0.0008       , -0.0008      , 5.0000       , 0.0000       , -0.0015      0.0300       , 49.9997      , 
742024000.0000, 0.0000       , 10.0000      , 22.0000      , 0.0015       , 0.0221       , -2.7055      , -0.0100      , 0.0004       , -2.7055      , 0.0000       , 0.0000       , 0.0000       , 0.0871       , 0.0000       , -4500.0000   , -4500.0000   , -4500.0000   , 100.0000     , -0.0015      , 0.0008       , -0.0008      , 5.0000       , 0.0000       , -0.0015      0.0300       , 49.9996      , 
742054016.0000, 0.0000       , 10.0000      , 22.0000      , 0.0015       , 0.0220       , -2.7055      , -0.0100      , 0.0005       , -2.7055      , 0.0000       , 0.0000       , 0.0000       , 0.0871       , 0.0000       , -4500.0000   , -4500.0000   , -4500.0000   , 100.0000     , -0.0015      , 0.0008       , -0.0008      , 5.0000       , 0.0000       , -0.0015      0.0300       , 49.9995      , 
742073984.0000, 0.0000       , 10.0000      , 22.0000      , 0.0015       , 0.0220       , -2.7055      , -0.0100      , 0.0005       , -2.7055      , 0.0000       , 0.0000       , 0.0000       , 0.0871       , 0.0000       , -4500.0000   , -4500.0000   , -4500.0000   , 100.0000     , -0.0015      , 0.0008       , -0.0008      , 4.9999       , 0.0000       , -0.0015      0.0300       , 49.9995      , 
742094976.0000, 0.0000       , 10.0000      , 22.0000      , 0.0015       , 0.0220       , -2.7055      , -0.0100      , 0.0005       , -2.7055      , 0.0000       , 0.0000       , 0.0000       , 0.0871       , 0.0000       , -4500.0000   , -4500.0000   , -4500.0000   , 100.0000     , -0.0015      , 0.0008       , -0.0008      , 4.9999       , 0.0000       , -0.0015      0.0300       , 49.9995      , 
742113984.0000, 0.0000       , 10.0000      , 22.0000      , 0.0015       , 0.0220       , -2.7055      , -0.0100      , 0.0006       , -2.7055      , 0.0000       , 0.0000       , 0.0000       , 0.0871       , 0.0000       , -4500.0000   , -4500.0000   , -4500.0000   , 100.0000     , -0.0015      , 0.0008       , -0.0008      , 4.9999       , 0.0000       , -0.0015      0.0300       , 49.9994      , 
742156992.0000, 0.0000       , 10.0000      , 22.0000      , 0.0015       , 0.0220       , -2.7055      , -0.0100      , 0.0006       , -2.7055      , 0.0000       , 0.0000       , 0.0000       , 0.0871       , 0.0000       , -4500.0000   , -4500.0000   , -4500.0000   , 100.0000     , -0.0015      , 0.0008       , -0.0008      , 4.9999       , 0.0000       , -0.0015      0.0300       , 49.9994      , 
742158016.0000, 0.0000       , 10.0000      , 22.0000      , 0.0015       , 0.0220       , -2.7055      , -0.0100      , 0.0006       , -2.7055      , 0.0000       , 0.0000       , 0.0000       , 0.0871       , 0.0000       , -4500.0000   , -4500.0000   , -4500.0000   , 100.0000     , -0.0015      , 0.0008       , -0.0008      , 4.9999       , 0.0000       , -0.0015      0.0300       , 49.9994      , 
742206976.0000, 0.0000       , 10.0000      , 22.0000      , 0.0015       , 0.0220       , -2.7055      , -0.0100      , 0.0006       , -2.7055      , 0.0000       , 0.0000       , 0.0000       , 0.0871       , 0.0000       , -4500.0000   , -4500.0000   , -4500.0000   , 100.0000     , -0.0015      , 0.0008       , -0.0008      , 4.9999       , 0.0000       , -0.0015      0.0300       , 49.9994      , 
742257024.0000, 0.0000       , 10.0000      , 22.0000      , 0.0015       , 0.0220       , -2.7055      , -0.0100      , 0.0006       , -2.7055      , 0.0000       , 0.0000       , 0.0000       , 0.0871       , 0.0000       , -4500.0000   , -4500.0000   , -4500.0000   , 100.0000     , -0.0015      , 0.0008       , -0.0008      , 4.9999       , 0.0000       , -0.0015      0.0300       , 49.9994      , 
742305024.0000, 0.0000       , 10.0000      , 22.0000      , 0.0015       , 0.0220       , -2.7055      , -0.0100      , 0.0005       , -2.7055      , 0.0000       , 0.0000       , 0.0000       , 0.0871       , 0.0000       , -4500.0000   , -4500.0000   , -4500.0000   , 100.0000     , -0.0015      , 0.0008       , -0.0008      , 4.9999       , 0.0000       , -0.0015      0.0300       , 49.9995      , 
742307008.0000, 0.0000       , 10.0000      , 22.0000      , 0.0015       , 0.0220       , -2.7055      , -0.0100      , 0.0005       , -2.7055      , 0.0000       , 0.0000       , 0.0000       , 0.0871       , 0.0000       , -4500.0000   , -4500.0000   , -4500.0000   , 100.0000     , -0.0015      , 0.0008       , -0.0008      , 4.9999       , 0.0000       , -0.0015      0.0300       , 49.9995      , 
742355968.0000, 0.0000       , 10.0000      , 22.0000      , 0.0015       , 0.0220       , -2.7055      , -0.0100      , 0.0005       , -2.7055      , 0.0000       , 0.0000       , 0.0000       , 0.0871       , 0.0000       , -4500.0000   , -4500.0000   , -4500.0000   , 100.0000     , -0.0015      , 0.0008       , -0.0008      , 5.0000       , 0.0000       , -0.0015      0.0300       , 49.9995      , 
742358016.0000, 0.0000       , 10.0000      , 22.0000      , 0.0015       , 0.0220       , -2.7055      , -0.0100      , 0.0005       , -2.7055      , 0.0000       , 0.0000       , 0.0000       , 0.0871       , 0.0000       , -4500.0000   , -4500.0000   , -4500.0000   , 100.0000     , -0.0015      , 0.0008       , -0.0008      , 5.0000       , 0.0000       , -0.0015      0.0300       , 49.9995      , 
742387968.0000, 0.0000       , 10.0000      , 22.0000      , 0.0015       , 0.0220       , -2.7055      , -0.0100      , 0.0004       , -2.7055      , 0.0000       , 0.0000       , 0.0000       , 0.0871       , 0.0000       , -4500.0000   , -4500.0000   , -4500.0000   , 100.0000     , -0.0015      , 0.0008       , -0.0008      , 5.0000       , 0.0000       , -0.0015      0.0300       , 49.9996      , 
742396992.0000, 0.0000       , 10.0000      , 22.0000      , 0.0015       , 0.0220       , -2.7055      , -0.0100      , 0.0004       , -2.7055      , 0.0000       , 0.0000       , 0.0000       , 0.0871       , 0.0000       , -4500.0000   , -4500.0000   , -4500.0000   , 100.0000     , -0.0015      , 0.0008       , -0.0008      , 5.0000       , 0.0000       , -0.0015      0.0300       , 49.9996      , 
742417024.0000, 0.0000       , 10.0000      , 22.0000      , 0.0015       , 0.0219       , -2.7055      , -0.0100      , 0.0004       , -2.7055      , 0.0000       , 0.0000       , 0.0000       , 0.0871       , 0.0000       , -4500.0000   , -4500.0000   , -4500.0000   , 100.0000     , -0.0015      , 0.0008       , -0.0008      , 5.0000       , 0.0000       , -0.0015      0.0300       , 49.9996      , 
742436992.0000, 0.0000       , 10.0000      , 22.0000      , 0.0015       , 0.0219       , -2.7055      , -0.0100      , 0.0004       , -2.7055      , 0.0000       , 0.0000       , 0.0000       , 0.0871       , 0.0000       , -4500.0000   , -4500.0000   , -4500.0000   , 100.0000     , -0.0015      , 0.0008       , -0.0008      , 5.0000       , 0.0000       , -0.0015      0.0300       , 49.9996      , 
742457984.0000, 0.0000       , 10.0000      , 22.0000      , 0.0015       , 0.0219       , -2.7055      , -0.0100      , 0.0003       , -2.7055      , 0.0000       , 0.0000       , 0.0000       , 0.0871       , 0.0000       , -4500.0000   , -4500.0000   , -4500.0000   , 100.0000     , -0.0015      , 0.0008       , -0.0008      , 5.0000       , 0.0000       , -0.0015      0.0300       , 49.9997      , 
742489024.0000, 0.0000       , 10.0000      , 22.0000      , 0.0015       , 0.0219       , -2.7055      , -0.0100      , 0.0003       , -2.7055      , 0.0000       , 0.0000       , 0.0000       , 0.0871       , 0.0000       , -4500.0000   , -4500.0000   , -4500.0000   , 100.0000     , -0.0015      , 0.0008       , -0.0008      , 5.0000       , 0.0000       , -0.0015      0.0300       , 49.9997      , 
742505984.0000, 0.0000       , 10.0000      , 22.0000      , 0.0015       , 0.0219       , -2.7055      , -0.0100      , 0.0002       , -2.7055      , 0.0000       , 0.0000       , 0.0000       , 0.0871       , 0.0000       , -4500.0000   , -4500.0000   , -4500.0000   , 100.0000     , -0.0015      , 0.0008       , -0.0008      , 5.0000       , 0.0000       , -0.0015      0.0300       , 49.9998      , 
742526016.0000, 0.0000       , 10.0000      , 22.0000      , 0.0015       , 0.0219       , -2.7055      , -0.0100      , 0.0002       , -2.7055      , 0.0000       , 0.0000       , 0.0000       , 0.0871       , 0.0000       , -4500.0000   , -4500.0000   , -4500.0000   , 100.0000     , -0.0015      , 0.0008       , -0.0008      , 5.0000       , 0.0000       , -0.0015      0.0300       , 49.9998      , 
742553024.0000, 0.0000       , 10.0000      , 22.0000      , 0.0015       , 0.0219       , -2.7055      , -0.0100      , 0.0001       , -2.7055      , 0.0000       , 0.0000       , 0.0000       , 0.0871       , 0.0000       , -4500.0000   , -4500.0000   , -4500.0000   , 100.0000     , -0.0015      , 0.0008       , -0.0008      , 5.0000       , 0.0000       , -0.0015      0.0300       , 49.9999      , 
742577024.0000, 0.0000       , 10.0000      , 22.0000      , 0.0015       , 0.0219       , -2.7055      , -0.0100      , 0.0001       , -2.7055      , 0.0000       , 0.0000       , 0.0000       , 0.0871       , 0.0000       , -4500.0000   , -4500.0000   , -4500.0000   , 100.0000     , -0.0015      , 0.0008       , -0.0008      , 5.0000       , 0.0000       , -0.0015      0.0300       , 49.9999      , 
742596992.0000, 0.0000       , 10.0000      , 22.0000      , 0.0015       , 0.0219       , -2.7055      , -0.0100      , 0.0001       , -2.7055      , 0.0000       , 0.0000       , 0.0000       , 0.0871       , 0.0000       , -4500.0000   , -4500.0000   , -4500.0000   , 100.0000     , -0.0015      , 0.0008       , -0.0008      , 5.0000       , 0.0000       , -0.0015      0.0300       , 49.9999      , 
742625984.0000, 0.0000       , 10.0000      , 22.0000      , 0.0015       , 0.0219       , -2.7055      , -0.0100      , 0.0000       , -2.7055      , 0.0000       , 0.0000       , 0.0000       , 0.0871       , 0.0000       , -4500.0000   , -4500.0000   , -4500.0000   , 100.0000     , -0.0015      , 0.0008       , -0.0008      , 5.0000       , 0.0000       , -0.0015      0.0300       , 50.0000      , 
742627008.0000, 0.0000       , 10.0000      , 22.0000      , 0.0015       , 0.0219       , -2.7055      , -0.0100      , 0.0000       , -2.7055      , 0.0000       , 0.0000       , 0.0000       , 0.0871       , 0.0000       , -4500.0000   , -4500.0000   , -4500.0000   , 100.0000     , -0.0015      , 0.0008       , -0.0008      , 5.0000       , 0.0000       , -0.0015      0.0300       , 50.0000      , 
742649024.0000, 0.0000       , 10.0000      , 22.0000      , 0.0015       , 0.0219       , -2.7055      , -0.0100      , 0.0001       , -2.7055      , 0.0000       , 0.0000       , 0.0000       , 0.0871       , 0.0000       , -4500.0000   , -4500.0000   , -4500.0000   , 100.0000     , -0.0015      , 0.0008       , -0.0008      , 5.0000       , 0.0000       , -0.0015      0.0300       , 49.9999      , 
742672000.0000, 0.0000       , 10.0000      , 22.0000      , 0.0015       , 0.0219       , -2.7055      , -0.0100      , 0.0001       , -2.7055      , 0.0000       , 0.0000       , 0.0000       , 0.0871       , 0.0000       , -4500.0000   , -4500.0000   , -4500.0000   , 100.0000     , -0.0015      , 0.0008       , -0.0008      , 5.0000       , 0.0000       , -0.0015      0.0300       , 49.9999      , 
742691008.0000, 0.0000       , 10.0000      , 22.0000      , 0.0015       , 0.0219       , -2.7055      , -0.0100      , 0.0001       , -2.7055      , 0.0000       , 0.0000       , 0.0000       , 0.0871       , 0.0000       , -4500.0000   , -4500.0000   , -4500.0000   , 100.0000     , -0.0015      , 0.0008       , -0.0008      , 5.0000       , 0.0000       , -0.0015      0.0300       , 49.9999      , 
742710016.0000, 0.0000       , 10.0000      , 22.0000      , 0.0015       , 0.0219       , -2.7055      , -0.0100      , 0.0001       , -2.7055      , 0.0000       , 0.0000       , 0.0000       , 0.0871       , 0.0000       , -4500.0000   , -4500.0000   , -4500.0000   , 100.0000     , -0.0015      , 0.0008       , -0.0008      , 5.0000       , 0.0000       , -0.0015      0.0300       , 49.9999      , 
742729984.0000, 0.0000       , 10.0000      , 22.0000      , 0.0015       , 0.0219       , -2.7055      , -0.0100      , 0.0001       , -2.7055      , 0.0000       , 0.0000       , 0.0000       , 0.0871       , 0.0000       , -4500.0000   , -4500.0000   , -4500.0000   , 100.0000     , -0.0015      , 0.0008       , -0.0008      , 5.0000       , 0.0000       , -0.0015      0.0300       , 49.9999      , 
742748992.0000, 0.0000       , 10.0000      , 22.0000      , 0.0015       , 0.0219       , -2.7055      , -0.0100      , 0.0001       , -2.7055      , 0.0000       , 0.0000       , 0.0000       , 0.0871       , 0.0000       , -4500.0000   , -4500.0000   , -4500.0000   , 100.0000     , -0.0015      , 0.0008       , -0.0008      , 5.0000       , 0.0000       , -0.0015      0.0300       , 49.9999      , 
742774016.0000, 0.0000       , 10.0000      , 22.0000      , 0.0015       , 0.0219       , -2.7055      , -0.0100      , 0.0001       , -2.7055      , 0.0000       , 0.0000       , 0.0000       , 0.0871       , 0.0000       , -4500.0000   , -4500.0000   , -4500.0000   , 100.0000     , -0.0015      , 0.0008       , -0.0008      , 5.0000       , 0.0000       , -0.0015      0.0300       , 49.9999      , 
742798976.0000, 0.0000       , 10.0000      , 22.0000      , 0.0015       , 0.0219       , -2.7055      , -0.0100      , 0.0001       , -2.7055      , 0.0000       , 0.0000       , 0.0000       , 0.0871       , 0.0000       , -4500.0000   , -4500.0000   , -4500.0000   , 100.0000     , -0.0015      , 0.0008       , -0.0008      , 5.0000       , 0.0000       , -0.0015      0.0300       , 49.9999      , 
742822016.0000, 0.0000       , 10.0000      , 22.0000      , 0.0015       , 0.0219       , -2.7055      , -0.0100      , 0.0001       , -2.7055      , 0.0000       , 0.0000       , 0.0000       , 0.0871       , 0.0000       , -4500.0000   , -4500.0000   , -4500.0000   , 100.0000     , -0.0015      , 0.0008       , -0.0008      , 5.0000       , 0.0000       , -0.0015      0.0300       , 49.9999      , 
742843008.0000, 0.0000       , 10.0000      , 22.0000      , 0.0015       , 0.0219       , -2.7055      , -0.0100      , 0.0001       , -2.7055      , 0.0000       , 0.0000       , 0.0000       , 0.0871       , 0.0000       , -4500.0000   , -4500.0000   , -4500.0000   , 100.0000     , -0.0015      , 0.0008       , -0.0008      , 5.0000       , 0.0000       , -0.0015      0.0300       , 49.9999      , 
742881024.0000, 0.0000       , 10.0000      , 22.0000      , 0.0015       , 0.0219       , -2.7055      , -0.0100      , 0.0001       , -2.7055      , 0.0000       , 0.0000       , 0.0000       , 0.0871       , 0.0000       , -4500.0000   , -4500.0000   , -4500.0000   , 100.0000     , -0.0015      , 0.0008       , -0.0008      , 5.0000       , 0.0000       , -0.0015      0.0300       , 49.9999      , 
742881984.0000, 0.0000       , 10.0000      , 22.0000      , 0.0015       , 0.0219       , -2.7055      , -0.0100      , 0.0001       , -2.7055      , 0.0000       , 0.0000       , 0.0000       , 0.0871       , 0.0000       , -4500.0000   , -4500.0000   , -4500.0000   , 100.0000     , -0.0015      , 0.0008       , -0.0008      , 5.0000       , 0.0000       , -0.0015      0.0300       , 49.9999      , 
742905024.0000, 0.0000       , 10.0000      , 22.0000      , 0.0015       , 0.0219       , -2.7055      , -0.0100      , 0.0001       , -2.7055      , 0.0000       , 0.0000       , 0.0000       , 0.0871       , 0.0000       , -4500.0000   , -4500.0000   , -4500.0000   , 100.0000     , -0.0015      , 0.0008       , -0.0008      , 5.0000       , 0.0000       , -0.0015      0.0300       , 49.9999      , 
742929984.0000, 0.0000       , 10.0000      , 22.0000      , 0.0015       , 0.0219       , -2.7054      , -0.0100      , 0.0001       , -2.7055      , 0.0000       , 0.0000       , 0.0000       , 0.0871       , 0.0000       , -4500.0000   , -4500.0000   , -4500.0000   , 100.0000     , -0.0015      , 0.0008       , -0.0008      , 5.0000       , 0.0000       , -0.0015      0.0300       , 49.9999      , 
742945024.0000, 0.0000       , 10.0000      , 22.0000      , 0.0015       , 0.0219       , -2.7054      , -0.0100      , 0.0001       , -2.7055      , 0.0000       , 0.0000       , 0.0000       , 0.0871       , 0.0000       , -4500.0000   , -4500.0000   , -4500.0000   , 100.0000     , -0.0015      , 0.0008       , -0.0008      , 5.0000       , 0.0000       , -0.0015      0.0300       , 49.9999      , 
742964992.0000, 0.0000       , 10.0000      , 22.0000      , 0.0015       , 0.0219       , -2.7054      , -0.0100      , 0.0001       , -2.7055      , 0.0000       , 0.0000       , 0.0000       , 0.0871       , 0.0000       , -4500.0000   , -4500.0000   , -4500.0000   , 100.0000     , -0.0015      , 0.0008       , -0.0008      , 5.0000       , 0.0000       , -0.0015      0.0300       , 49.9999      , 
742985984.0000, 0.0000       , 10.0000      , 22.0000      , 0.0015       , 0.0219       , -2.7054      , -0.0100      , 0.0001       , -2.7055      , 0.0000       , 0.0000       , 0.0000       , 0.0871       , 0.0000       , -4500.0000   , -4500.0000   , -4500.0000   , 100.0000     , -0.0015      , 0.0008       , -0.0008      , 5.0000       , 0.0000       , -0.0015      0.0300       , 49.9999      , 
743004992.0000, 0.0000       , 10.0000      , 22.0000      , 0.0015       , 0.0219       , -2.7054      , -0.0100      , 0.0001       , -2.7054      , 0.0000       , 0.0000       , 0.0000       , 0.0871       , 0.0000       , -4500.0000   , -4500.0000   , -4500.0000   , 100.0000     , -0.0015      , 0.0008       , -0.0008      , 5.0000       , 0.0000       , -0.0015      0.0300       , 49.9999      , 
743030976.0000, 0.0000       , 10.0000      , 22.0000      , 0.0015       , 0.0219       , -2.7054      , -0.0100      , 0.0001       , -2.7054      , 0.0000       , 0.0000       , 0.0000       , 0.0871       , 0.0000       , -4500.0000   , -4500.0000   , -4500.0000   , 100.0000     , -0.0015      , 0.0008       , -0.0008      , 5.0000       , 0.0000       , -0.0015      0.0300       , 49.9999      , 
743057024.0000, 0.0000       , 10.0000      , 22.0000      , 0.0015       , 0.0219       , -2.7054      , -0.0100      , 0.0001       , -2.7054      , 0.0000       , 0.0000       , 0.0000       , 0.0871       , 0.0000       , -4500.0000   , -4500.0000   , -4500.0000   , 100.0000     , -0.0015      , 0.0008       , -0.0008      , 5.0000       , 0.0000       , -0.0015      0.0300       , 49.9999      , 
743081984.0000, 0.0000       , 10.0000      , 22.0000      , 0.0015       , 0.0219       , -2.7054      , -0.0100      , 0.0001       , -2.7054      , 0.0000       , 0.0000       , 0.0000       , 0.0871       , 0.0000       , -4500.0000   , -4500.0000   , -4500.0000   , 100.0000     , -0.0015      , 0.0008       , -0.0008      , 5.0000       , 0.0000       , -0.0015      0.0300       , 49.9999      , 
743100032.0000, 0.0000       , 10.0000      , 22.0000      , 0.0015       , 0.0219       , -2.7054      , -0.0100      , 0.0001       , -2.7054      , 0.0000       , 0.0000       , 0.0000       , 0.0871       , 0.0000       , -4500.0000   , -4500.0000   , -4500.0000   , 100.0000     , -0.0015      , 0.0008       , -0.0008      , 5.0000       , 0.0000       , -0.0015      0.0300       , 49.9999      , 
743105024.0000, 0.0000       , 10.0000      , 22.0000      , 0.0015       , 0.0219       , -2.7054      , -0.0100      , 0.0001       , -2.7054      , 0.0000       , 0.0000       , 0.0000       , 0.0871       , 0.0000       , -4500.0000   , -4500.0000   , -4500.0000   , 100.0000     , -0.0015      , 0.0008       , -0.0008      , 5.0000       , 0.0000       , -0.0015      0.0300       , 49.9999      , 
743124992.0000, 0.0000       , 10.0000      , 22.0000      , 0.0015       , 0.0219       , -2.7054      , -0.0100      , 0.0001       , -2.7054      , 0.0000       , 0.0000       , 0.0000       , 0.0871       , 0.0000       , -4500.0000   , -4500.0000   , -4500.0000   , 100.0000     , -0.0015      , 0.0008       , -0.0008      , 5.0000       , 0.0000       , -0.0015      0.0300       , 49.9999      , 
743145984.0000, 0.0000       , 10.0000      , 22.0000      , 0.0015       , 0.0219       , -2.7054      , -0.0100      , 0.0001       , -2.7054      , 0.0000       , 0.0000       , 0.0000       , 0.0871       , 0.0000       , -4500.0000   , -4500.0000   , -4500.0000   , 100.0000     , -0.0015      , 0.0008       , -0.0008      , 5.0000       , 0.0000       , -0.0015      0.0300       , 49.9999      , 
743164992.0000, 0.0000       , 10.0000      , 22.0000      , 0.0015       , 0.0219       , -2.7054      , -0.0100      , 0.0001       , -2.7054      , 0.0000       , 0.0000       , 0.0000       , 0.0871       , 0.0000       , -4500.0000   , -4500.0000   , -4500.0000   , 100.0000     , -0.0015      , 0.0008       , -0.0008      , 5.0000       , 0.0000       , -0.0015      0.0300       , 49.9999      , 
743185024.0000, 0.0000       , 10.0000      , 22.0000      , 0.0015       , 0.0219       , -2.7054      , -0.0100      , 0.0001       , -2.7054      , 0.0000       , 0.0000       , 0.0000       , 0.0871       , 0.0000       , -4500.0000   , -4500.0000   , -4500.0000   , 100.0000     , -0.0015      , 0.0008       , -0.0008      , 5.0000       , 0.0000       , -0.0015      0.0300       , 49.9999      , 
743204992.0000, 0.0000       , 10.0000      , 22.0000      , 0.0015       , 0.0219       , -2.7054      , -0.0100      , 0.0001       , -2.7054      , 0.0000       , 0.0000       , 0.0000       , 0.0871       , 0.0000       , -4500.0000   , -4500.0000   , -4500.0000   , 100.0000     , -0.0015      , 0.0008       , -0.0008      , 5.0000       , 0.0000       , -0.0015      0.0300       , 49.9999      , 
743232000.0000, 0.0000       , 10.0000      , 22.0000      , 0.0015       , 0.0219       , -2.7054      , -0.0100      , 0.0001       , -2.7054      , 0.0000       , 0.0000       , 0.0000       , 0.0871       , 0.0000       , -4500.0000   , -4500.0000   , -4500.0000   , 100.0000     , -0.0015      , 0.0008       , -0.0008      , 5.0000       , 0.0000       , -0.0015      0.0300       , 49.9999      , 
743260992.0000, 0.0000       , 10.0000      , 22.0000      , 0.0015       , 0.0219       , -2.7054      , -0.0100      , 0.0001       , -2.7054      , 0.0000       , 0.0000       , 0.0000       , 0.0871       , 0.0000       , -4500.0000   , -4500.0000   , -4500.0000   , 100.0000     , -0.0015      , 0.0008       , -0.0008      , 5.0000       , 0.0000       , -0.0015      0.0300       , 49.9999      , 
743286016.0000, 0.0000       , 10.0000      , 22.0000      , 0.0015       , 0.0219       , -2.7054      , -0.0100      , 0.0000       , -2.7054      , 0.0000       , 0.0000       , 0.0000       , 0.0871       , 0.0000       , -4500.0000   , -4500.0000   , -4500.0000   , 100.0000     , -0.0015      , 0.0008       , -0.0008      , 5.0000       , 0.0000       , -0.0015      0.0300       , 50.0000      , 
743286976.0000, 0.0000       , 10.0000      , 22.0000      , 0.0015       , 0.0219       , -2.7054      , -0.0100      , 0.0000       , -2.7054      , 0.0000       , 0.0000       , 0.0000       , 0.0871       , 0.0000       , -4500.0000   , -4500.0000   , -4500.0000   , 100.0000     , -0.0015      , 0.0008       , -0.0008      , 5.0000       , 0.0000       , -0.0015      0.0300       , 50.0000      , 
743308032.0000, 0.0000       , 10.0000      , 22.0000      , 0.0015       , 0.0219       , -2.7054      , -0.0100      , 0.0001       , -2.7054      , 0.0000       , 0.0000       , 0.0000       , 0.0871       , 0.0000       , -4500.0000   , -4500.0000   , -4500.0000   , 100.0000     , -0.0015      , 0.0008       , -0.0008      , 5.0000       , 0.0000       , -0.0015      0.0300       , 49.9999      , 
743326016.0000, 0.0000       , 10.0000      , 22.0000      , 0.0015       , 0.0219       , -2.7054      , -0.0100      , 0.0001       , -2.7054      , 0.0000       , 0.0000       , 0.0000       , 0.0871       , 0.0000       , -4500.0000   , -4500.0000   , -4500.0000   , 100.0000     , -0.0015      , 0.0008       , -0.0008      , 5.0000       , 0.0000       , -0.0015      0.0300       , 49.9999      , 
743364992.0000, 0.0000       , 10.0000      , 22.0000      , 0.0015       , 0.0219       , -2.7054      , -0.0100      , 0.0001       , -2.7054      , 0.0000       , 0.0000       , 0.0000       , 0.0871       , 0.0000       , -4500.0000   , -4500.0000   , -4500.0000   , 100.0000     , -0.0015      , 0.0008       , -0.0008      , 5.0000       , 0.0000       , -0.0015      0.0300       , 49.9999      , 
743366016.0000, 0.0000       , 10.0000      , 22.0000      , 0.0015       , 0.0219       , -2.7054      , -0.0100      , 0.0001       , -2.7054      , 0.0000       , 0.0000       , 0.0000       , 0.0871       , 0.0000       , -4500.0000   , -4500.0000   , -4500.0000   , 100.0000     , -0.0015      , 0.0008       , -0.0008      , 5.0000       , 0.0000       , -0.0015      0.0300       , 49.9999      , 
743385024.0000, 0.0000       , 10.0000      , 22.0000      , 0.0015       , 0.0219       , -2.7054      , -0.0100      , 0.0001       , -2.7054      , 0.0000       , 0.0000       , 0.0000       , 0.0871       , 0.0000       , -4500.0000   , -4500.0000   , -4500.0000   , 100.0000     , -0.0015      , 0.0008       , -0.0008      , 5.0000       , 0.0000       , -0.0015      0.0300       , 49.9999      , 
743404992.0000, 0.0000       , 10.0000      , 22.0000      , 0.0015       , 0.0219       , -2.7054      , -0.0100      , 0.0001       , -2.7054      , 0.0000       , 0.0000       , 0.0000       , 0.0871       , 0.0000       , -4500.0000   , -4500.0000   , -4500.0000   , 100.0000     , -0.0015      , 0.0008       , -0.0007      , 5.0000       , 0.0000       , -0.0015      0.0300       , 49.9999      , 
743443008.0000, 0.0000       , 10.0000      , 22.0000      , 0.0015       , 0.0219       , -2.7054      , -0.0100      , 0.0001       , -2.7054      , 0.0000       , 0.0000       , 0.0000       , 0.0871       , 0.0000       , -4500.0000   , -4500.0000   , -4500.0000   , 100.0000     , -0.0015      , 0.0008       , -0.0007      , 5.0000       , 0.0000       , -0.0015      0.0300       , 49.9999      , 
743465984.0000, 0.0000       , 10.0000      , 22.0000      , 0.0015       , 0.0219       , -2.7054      , -0.0100      , 0.0000       , -2.7054      , 0.0000       , 0.0000       , 0.0000       , 0.0871       , 0.0000       , -4500.0000   , -4500.0000   , -4500.0000   , 100.0000     , -0.0015      , 0.0008       , -0.0007      , 5.0000       , 0.0000       , -0.0015      0.0300       , 50.0000      , 
743467008.0000, 0.0000       , 10.0000      , 22.0000      , 0.0015       , 0.0219       , -2.7054      , -0.0100      , 0.0000       , -2.7054      , 0.0000       , 0.0000       , 0.0000       , 0.0871       , 0.0000       , -4500.0000   , -4500.0000   , -4500.0000   , 100.0000     , -0.0015      , 0.0008       , -0.0007      , 5.0000       , 0.0000       , -0.0015      0.0300       , 50.0000      , 
743484992.0000, 0.0000       , 10.0000      , 22.0000      , 0.0015       , 0.0219       , -2.7054      , -0.0100      , 0.0000       , -2.7054      , 0.0000       , 0.0000       , 0.0000       , 0.0871       , 0.0000       , -4500.0000   , -4500.0000   , -4500.0000   , 100.0000     , -0.0015      , 0.0008       , -0.0007      , 5.0000       , 0.0000       , -0.0015      0.0300       , 50.0000      , 
743505024.0000, 0.0000       , 10.0000      , 22.0000      , 0.0015       , 0.0219       , -2.7054      , -0.0100      , 0.0000       , -2.7054      , 0.0000       , 0.0000       , 0.0000       , 0.0871       , 0.0000       , -4500.0000   , -4500.0000   , -4500.0000   , 100.0000     , -0.0015      , 0.0008       , -0.0007      , 5.0000       , 0.0000       , -0.0015      0.0300       , 50.0000      , 
743524992.0000, 0.0000       , 10.0000      , 22.0000      , 0.0015       , 0.0219       , -2.7054      , -0.0100      , 0.0000       , -2.7054      , 0.0000       , 0.0000       , 0.0000       , 0.0871       , 0.0000       , -4500.0000   , -4500.0000   , -4500.0000   , 100.0000     , -0.0015      , 0.0008       , -0.0007      , 5.0000       , 0.0000       , -0.0015      0.0300       , 50.0000      , 
743547008.0000, 0.0000       , 10.0000      , 22.0000      , 0.0015       , 0.0219       , -2.7054      , -0.0100      , 0.0001       , -2.7054      , 0.0000       , 0.0000       , 0.0000       , 0.0871       , 0.0000       , -4500.0000   , -4500.0000   , -4500.0000   , 100.0000     , -0.0015      , 0.0008       , -0.0007      , 5.0000       , 0.0000       , -0.0015      0.0300       , 49.9999      , 
743566016.0000, 0.0000       , 10.0000      , 22.0000      , 0.0015       , 0.0219       , -2.7054      , -0.0100      , 0.0001       , -2.7054      , 0.0000       , 0.0000       , 0.0000       , 0.0871       , 0.0000       , -4500.0000   , -4500.0000   , -4500.0000   , 100.0000     , -0.0015      , 0.0008       , -0.0007      , 5.0000       , 0.0000       , -0.0015      0.0300       , 49.9999      , 
743600000.0000, 0.0000       , 10.0000      , 22.0000      , 0.0015       , 0.0219       , -2.7054      , -0.0100      , 0.0002       , -2.7054      , 0.0000       , 0.0000       , 0.0000       , 0.0871       , 0.0000       , -4500.0000   , -4500.0000   , -4500.0000   , 100.0000     , -0.0015      , 0.0008       , -0.0008      , 5.0000       , 0.0000       , -0.0015      0.0300       , 49.9998      , 
743617024.0000, 0.0000       , 10.0000      , 22.0000      , 0.0015       , 0.0219       , -2.7054      , -0.0100      , 0.0002       , -2.7054      , 0.0000       , 0.0000       , 0.0000       , 0.0871       , 0.0000       , -4500.0000   , -4500.0000   , -4500.0000   , 100.0000     , -0.0015      , 0.0008       , -0.0008      , 5.0000       , 0.0000       , -0.0015      0.0300       , 49.9998      , 
743630976.0000, 0.0000       , 10.0000      , 22.0000      , 0.0015       , 0.0219       , -2.7054      , -0.0100      , 0.0003       , -2.7054      , 0.0000       , 0.0000       , 0.0000       , 0.0871       , 0.0000       , -4500.0000   , -4500.0000   , -4500.0000   , 100.0000     , -0.0015      , 0.0008       , -0.0008      , 5.0000       , 0.0000       , -0.0015      0.0300       , 49.9997      , 
743646976.0000, 0.0000       , 10.0000      , 22.0000      , 0.0015       , 0.0219       , -2.7054      , -0.0100      , 0.0003       , -2.7054      , 0.0000       , 0.0000       , 0.0000       , 0.0871       , 0.0000       , -4500.0000   , -4500.0000   , -4500.0000   , 100.0000     , -0.0015      , 0.0008       , -0.0008      , 5.0000       , 0.0000       , -0.0015      0.0300       , 49.9997      , 
743665024.0000, 0.0000       , 10.0000      , 22.0000      , 0.0015       , 0.0219       , -2.7054      , -0.0100      , 0.0003       , -2.7054      , 0.0000       , 0.0000       , 0.0000       , 0.0871       , 0.0000       , -4500.0000   , -4500.0000   , -4500.0000   , 100.0000     , -0.0015      , 0.0008       , -0.0008      , 5.0000       , 0.0000       , -0.0015      0.0300       , 49.9997      , 
743684992.0000, 0.0000       , 10.0000      , 22.0000      , 0.0015       , 0.0219       , -2.7054      , -0.0100      , 0.0003       , -2.7054      , 0.0000       , 0.0000       , 0.0000       , 0.0871       , 0.0000       , -4500.0000   , -4500.0000   , -4500.0000   , 100.0000     , -0.0015      , 0.0008       , -0.0008      , 5.0000       , 0.0000       , -0.0015      0.0300       , 49.9997      , 
743707008.0000, 0.0000       , 10.0000      , 22.0000      , 0.0015       , 0.0219       , -2.7054      , -0.0100      , 0.0004       , -2.7054      , 0.0000       , 0.0000       , 0.0000       , 0.0871       , 0.0000       , -4500.0000   , -4500.0000   , -4500.0000   , 100.0000     , -0.0015      , 0.0008       , -0.0008      , 5.0000       , 0.0000       , -0.0015      0.0300       , 49.9996      , 
743726016.0000, 0.0000       , 10.0000      , 22.0000      , 0.0015       , 0.0219       , -2.7054      , -0.0100      , 0.0004       , -2.7054      , 0.0000       , 0.0000       , 0.0000       , 0.0871       , 0.0000       , -4500.0000   , -4500.0000   , -4500.0000   , 100.0000     , -0.0015      , 0.0008       , -0.0008      , 5.0000       , 0.0000       , -0.0015      0.0300       , 49.9996      , 
743747968.0000, 0.0000       , 10.0000      , 22.0000      , 0.0015       , 0.0219       , -2.7054      , -0.0100      , 0.0004       , -2.7054      , 0.0000       , 0.0000       , 0.0000       , 0.0871       , 0.0000       , -4500.0000   , -4500.0000   , -4500.0000   , 100.0000     , -0.0015      , 0.0008       , -0.0008      , 5.0000       , 0.0000       , -0.0015      0.0300       , 49.9996      , 
743766976.0000, 0.0000       , 10.0000      , 22.0000      , 0.0015       , 0.0219       , -2.7054      , -0.0100      , 0.0004       , -2.7054      , 0.0000       , 0.0000       , 0.0000       , 0.0871       , 0.0000       , -4500.0000   , -4500.0000   , -4500.0000   , 100.0000     , -0.0015      , 0.0008       , -0.0008      , 5.0000       , 0.0000       , -0.0015      0.0300       , 49.9996      , 
743785984.0000, 0.0000       , 10.0000      , 22.0000      , 0.0015       , 0.0219       , -2.7054      , -0.0100      , 0.0004       , -2.7054      , 0.0000       , 0.0000       , 0.0000       , 0.0871       , 0.0000       , -4500.0000   , -4500.0000   , -4500.0000   , 100.0000     , -0.0015      , 0.0008       , -0.0008      , 5.0000       , 0.0000       , -0.0015      0.0300       , 49.9996      , 
743806976.0000, 0.0000       , 10.0000      , 22.0000      , 0.0015       , 0.0219       , -2.7054      , -0.0100      , 0.0004       , -2.7054      , 0.0000       , 0.0000       , 0.0000       , 0.0871       , 0.0000       , -4500.0000   , -4500.0000   , -4500.0000   , 100.0000     , -0.0015      , 0.0008       , -0.0008      , 5.0000       , 0.0000       , -0.0015      0.0300       , 49.9996      , 
743825024.0000, 0.0000       , 10.0000      , 22.0000      , 0.0015       , 0.0219       , -2.7054      , -0.0100      , 0.0003       , -2.7054      , 0.0000       , 0.0000       , 0.0000       , 0.0871       , 0.0000       , -4500.0000   , -4500.0000   , -4500.0000   , 100.0000     , -0.0015      , 0.0008       , -0.0008      , 5.0000       , 0.0000       , -0.0015      0.0300       , 49.9997      , 
743859968.0000, 0.0000       , 10.0000      , 22.0000      , 0.0015       , 0.0220       , -2.7054      , -0.0100      , 0.0002       , -2.7054      , 0.0000       , 0.0000       , 0.0000       , 0.0871       , 0.0000       , -4500.0000   , -4500.0000   , -4500.0000   , 100.0000     , -0.0015      , 0.0008       , -0.0008      , 5.0000       , 0.0000       , -0.0015      0.0300       , 49.9998      , 
743873984.0000, 0.0000       , 10.0000      , 22.0000      , 0.0015       , 0.0220       , -2.7054      , -0.0100      , 0.0002       , -2.7054      , 0.0000       , 0.0000       , 0.0000       , 0.0871       , 0.0000       , -4500.0000   , -4500.0000   , -4500.0000   , 100.0000     , -0.0015      , 0.0008       , -0.0008      , 5.0000       , 0.0000       , -0.0015      0.0300       , 49.9998      , 
743891008.0000, 0.0000       , 10.0000      , 22.0000      , 0.0015       , 0.0220       , -2.7054      , -0.0100      , 0.0001       , -2.7054      , 0.0000       , 0.0000       , 0.0000       , 0.0871       , 0.0000       , -4500.0000   , -4500.0000   , -4500.0000   , 100.0000     , -0.0015      , 0.0008       , -0.0008      , 5.0000       , 0.0000       , -0.0015      0.0300       , 49.9999      , 
743910016.0000, 0.0000       , 10.0000      , 22.0000      , 0.0015       , 0.0220       , -2.7054      , -0.0100      , 0.0001       , -2.7054      , 0.0000       , 0.0000       , 0.0000       , 0.0871       , 0.0000       , -4500.0000   , -4500.0000   , -4500.0000   , 100.0000     , -0.0015      , 0.0008       , -0.0008      , 5.0000       , 0.0000       , -0.0015      0.0300       , 49.9999      , 
743926016.0000, 0.0000       , 10.0000      , 22.0000      , 0.0015       , 0.0220       , -2.7054      , -0.0100      , 0.0001       , -2.7054      , 0.0000       , 0.0000       , 0.0000       , 0.0871       , 0.0000       , -4500.0000   , -4500.0000   , -4500.0000   , 100.0000     , -0.0015      , 0.0008       , -0.0008      , 5.0000       , 0.0000       , -0.0015      0.0300       , 49.9999      , 
743945024.0000, 0.0000       , 10.0000      , 22.0000      , 0.0015       , 0.0220       , -2.7054      , -0.0100      , 0.0000       , -2.7054      , 0.0000       , 0.0000       , 0.0000       , 0.0871       , 0.0000       , -4500.0000   , -4500.0000   , -4500.0000   , 100.0000     , -0.0015      , 0.0008       , -0.0008      , 5.0000       , 0.0000       , -0.0015      0.0300       , 50.0000      , 
743964992.0000, 0.0000       , 10.0000      , 22.0000      , 0.0015       , 0.0220       , -2.7054      , -0.0100      , 0.0000       , -2.7054      , 0.0000       , 0.0000       , 0.0000       , 0.0871       , 0.0000       , -4500.0000   , -4500.0000   , -4500.0000   , 100.0000     , -0.0015      , 0.0008       , -0.0008      , 5.0000       , 0.0000       , -0.0015      0.0300       , 50.0000      , 
743995008.0000, 0.0000       , 10.0000      , 22.0000      , 0.0015       , 0.0220       , -2.7054      , -0.0100      , 0.0001       , -2.7054      , 0.0000       , 0.0000       , 0.0000       , 0.0871       , 0.0000       , -4500.0000   , -4500.0000   , -4500.0000   , 100.0000     , -0.0015      , 0.0008       , -0.0008      , 5.0000       , 0.0000       , -0.0015      0.0300       , 49.9999      , 
744012032.0000, 0.0000       , 10.0000      , 22.0000      , 0.0015       , 0.0220       , -2.7054      , -0.0100      , 0.0002       , -2.7054      , 0.0000       , 0.0000       , 0.0000       , 0.0871       , 0.0000       , -4500.0000   , -4500.0000   , -4500.0000   , 100.0000     , -0.0015      , 0.0008       , -0.0008      , 5.0000       , 0.0000       , -0.0015      0.0300       , 49.9998      , 
744028032.0000, 0.0000       , 10.0000      , 22.0000      , 0.0015       , 0.0220       , -2.7054      , -0.0100      , 0.0002       , -2.7054      , 0.0000       , 0.0000       , 0.0000       , 0.0871       , 0.0000       , -4500.0000   , -4500.0000   , -4500.0000   , 100.0000     , -0.0015      , 0.0008       , -0.0008      , 5.0000       , 0.0000       , -0.0015      0.0300       , 49.9998      , 
744044992.0000, 0.0000       , 10.0000      , 22.0000      , 0.0015       , 0.0220       , -2.7055      , -0.0100      , 0.0003       , -2.7054      , 0.0000       , 0.0000       , 0.0000       , 0.0871       , 0.0000       , -4500.0000   , -4500.0000   , -4500.0000   , 100.0000     , -0.0015      , 0.0008       , -0.0008      , 5.0000       , 0.0000       , -0.0015      0.0300       , 49.9997      , 
744075008.0000, 0.0000       , 10.0000      , 22.0000      , 0.0015       , 0.0220       , -2.7055      , -0.0100      , 0.0004       , -2.7054      , 0.0000       , 0.0000       , 0.0000       , 0.0871       , 0.0000       , -4500.0000   , -4500.0000   , -4500.0000   , 100.0000     , -0.0015      , 0.0008       , -0.0008      , 5.0000       , 0.0000       , -0.0015      0.0300       , 49.9996      , 
744089984.0000, 0.0000       , 10.0000      , 22.0000      , 0.0015       , 0.0220       , -2.7055      , -0.0100      , 0.0004       , -2.7054      , 0.0000       , 0.0000       , 0.0000       , 0.0871       , 0.0000       , -4500.0000   , -4500.0000   , -4500.0000   , 100.0000     , -0.0015      , 0.0008       , -0.0008      , 5.0000       , 0.0000       , -0.0015      0.0300       , 49.9996      , 
744105984.0000, 0.0000       , 10.0000      , 22.0000      , 0.0015       , 0.0220       , -2.7055      , -0.0100      , 0.0005       , -2.7055      , 0.0000       , 0.0000       , 0.0000       , 0.0871       , 0.0000       , -4500.0000   , -4500.0000   , -4500.0000   , 100.0000     , -0.0015      , 0.0008       , -0.0008      , 5.0000       , 0.0000       , -0.0015      0.0300       , 49.9995      , 
744124992.0000, 0.0000       , 10.0000      , 22.0000      , 0.0015       , 0.0220       , -2.7055      , -0.0100      , 0.0005       , -2.7055      , 0.0000       , 0.0000       , 0.0000       , 0.0871       , 0.0000       , -4500.0000   , -4500.0000   , -4500.0000   , 100.0000     , -0.0015      , 0.0008       , -0.0008      , 4.9999       , 0.0000       , -0.0015      0.0300       , 49.9995      , 
744150016.0000, 0.0000       , 10.0000      , 22.0000      , 0.0015       , 0.0219       , -2.7055      , -0.0100      , 0.0006       , -2.7055      , 0.0000       , 0.0000       , 0.0000       , 0.0871       , 0.0000       , -4500.0000   , -4500.0000   , -4500.0000   , 100.0000     , -0.0015      , 0.0008       , -0.0008      , 4.9999       , 0.0000       , -0.0015      0.0300       , 49.9994      , 
744164992.0000, 0.0000       , 10.0000      , 22.0000      , 0.0015       , 0.0219       , -2.7055      , -0.0100      , 0.0006       , -2.7055      , 0.0000       , 0.0000       , 0.0000       , 0.0871       , 0.0000       , -4500.0000   , -4500.0000   , -4500.0000   , 100.0000     , -0.0015      , 0.0008       , -0.0008      , 4.9999       , 0.0000       , -0.0015      0.0300       , 49.9994      , 
744201024.0000, 0.0000       , 10.0000      , 22.0000      , 0.0015       , 0.0219       , -2.7055      , -0.0100      , 0.0006       , -2.7055      , 0.0000       , 0.0000       , 0.0000       , 0.0871       , 0.0000       , -4500.0000   , -4500.0000   , -4500.0000   , 100.0000     , -0.0015      , 0.0008       , -0.0008      , 4.9999       , 0.0000       , -0.0015      0.0300       , 49.9994      , 
744214976.0000, 0.0000       , 10.0000      , 22.0000      , 0.0015       , 0.0219       , -2.7055      , -0.0100      , 0.0006       , -2.7055      , 0.0000       , 0.0000       , 0.0000       , 0.0871       , 0.0000       , -4500.0000   , -4500.0000   , -4500.0000   , 100.0000     , -0.0015      , 0.0008       , -0.0008      , 4.9999       , 0.0000       , -0.0015      0.0300       , 49.9994      , 
