time         , active       , control_mode , commmand_nav , roll         , pitch        , yaw          , altitude     , airspeed     , yaw_nav      , yaw_error    , altitude_nav , roll_L1      , pitch_TECS   , throttle_TECS, aileron_rc   , elevator_rc  , rudder_rc    , throttle_rc  , aileron      , elevator     , rudder       , throttle     , debug1       , debug2       , debug3       , debug4       
844.9460     , 0.0000       , 10.0000      , 22.0000      , 0.0015       , 0.0215       , -2.7054      , -0.0000      , 0.0002       , 0.4361       , 0.0000       , 0.0000       , 0.0000       , 0.0871       , 0.0000       , -4500.0000   , -4500.0000   , -4500.0000   , 100.0000     , -0.0015      , -0.0021      , -0.0007      , 5.0000       , 0.0000       , -0.0015      , 0.0000       , 49.9998      
844.9630     , 0.0000       , 10.0000      , 22.0000      , 0.0015       , 0.0215       , -2.7054      , -0.0000      , 0.0002       , 0.4361       , 0.0000       , 0.0000       , 0.0000       , 0.0871       , 0.0000       , -4500.0000   , -4500.0000   , -4500.0000   , 100.0000     , -0.0015      , -0.0021      , -0.0007      , 5.0000       , 0.0000       , -0.0015      , 0.0000       , 49.9998      
844.9800     , 0.0000       , 10.0000      , 22.0000      , 0.0015       , 0.0215       , -2.7054      , -0.0000      , 0.0001       , 0.4361       , 0.0000       , 0.0000       , 0.0000       , 0.0871       , 0.0000       , -4500.0000   , -4500.0000   , -4500.0000   , 100.0000     , -0.0015      , -0.0021      , -0.0007      , 5.0000       , 0.0000       , -0.0015      , 0.0000       , 49.9999      
845.0010     , 0.0000       , 10.0000      , 22.0000      , 0.0015       , 0.0215       , -2.7054      , -0.0000      , 0.0001       , -2.7054      , 0.0000       , 0.0000       , 0.0000       , 0.0871       , 0.0000       , -4500.0000   , -4500.0000   , -4500.0000   , 100.0000     , -0.0015      , -0.0021      , -0.0007      , 5.0000       , 0.0000       , -0.0015      , 0.0000       , 49.9999      
845.0340     , 0.0000       , 10.0000      , 22.0000      , 0.0015       , 0.0215       , -2.7054      , -0.0000      , 0.0002       , -2.7054      , 0.0000       , 0.0000       , 0.0000       , 0.0871       , 0.0000       , -4500.0000   , -4500.0000   , -4500.0000   , 100.0000     , -0.0015      , -0.0021      , -0.0007      , 5.0000       , 0.0000       , -0.0015      , 0.0000       , 49.9998      
845.0350     , 0.0000       , 10.0000      , 22.0000      , 0.0015       , 0.0215       , -2.7054      , -0.0000      , 0.0002       , -2.7054      , 0.0000       , 0.0000       , 0.0000       , 0.0871       , 0.0000       , -4500.0000   , -4500.0000   , -4500.0000   , 100.0000     , -0.0015      , -0.0021      , -0.0007      , 5.0000       , 0.0000       , -0.0015      , 0.0000       , 49.9998      
845.0560     , 0.0000       , 10.0000      , 22.0000      , 0.0015       , 0.0215       , -2.7054      , -0.0000      , 0.0003       , -2.7054      , 0.0000       , 0.0000       , 0.0000       , 0.0871       , 0.0000       , -4500.0000   , -4500.0000   , -4500.0000   , 100.0000     , -0.0015      , -0.0022      , -0.0008      , 5.0000       , 0.0000       , -0.0015      , 0.0000       , 49.9997      
845.0750     , 0.0000       , 10.0000      , 22.0000      , 0.0015       , 0.0215       , -2.7054      , -0.0000      , 0.0004       , -2.7054      , 0.0000       , 0.0000       , 0.0000       , 0.0871       , 0.0000       , -4500.0000   , -4500.0000   , -4500.0000   , 100.0000     , -0.0015      , -0.0022      , -0.0008      , 5.0000       , 0.0000       , -0.0015      , 0.0000       , 49.9996      
845.0950     , 0.0000       , 10.0000      , 22.0000      , 0.0015       , 0.0215       , -2.7054      , -0.0000      , 0.0006       , -2.7054      , 0.0000       , 0.0000       , 0.0000       , 0.0871       , 0.0000       , -4500.0000   , -4500.0000   , -4500.0000   , 100.0000     , -0.0015      , -0.0022      , -0.0008      , 4.9999       , 0.0000       , -0.0015      , 0.0000       , 49.9994      
845.1170     , 0.0000       , 10.0000      , 22.0000      , 0.0015       , 0.0215       , -2.7054      , -0.0000      , 0.0009       , -2.7054      , 0.0000       , 0.0000       , 0.0000       , 0.0871       , 0.0000       , -4500.0000   , -4500.0000   , -4500.0000   , 100.0000     , -0.0015      , -0.0022      , -0.0008      , 4.9999       , 0.0000       , -0.0015      , 0.0000       , 49.9991      
845.1370     , 0.0000       , 10.0000      , 22.0000      , 0.0015       , 0.0216       , -2.7054      , -0.0000      , 0.0010       , -2.7054      , 0.0000       , 0.0000       , 0.0000       , 0.0871       , 0.0000       , -4500.0000   , -4500.0000   , -4500.0000   , 100.0000     , -0.0015      , -0.0022      , -0.0008      , 4.9999       , 0.0000       , -0.0015      , 0.0000       , 49.9990      
845.1560     , 0.0000       , 10.0000      , 22.0000      , 0.0015       , 0.0216       , -2.7054      , -0.0000      , 0.0012       , -2.7054      , 0.0000       , 0.0000       , 0.0000       , 0.0871       , 0.0000       , -4500.0000   , -4500.0000   , -4500.0000   , 100.0000     , -0.0015      , -0.0022      , -0.0008      , 4.9999       , 0.0000       , -0.0015      , 0.0000       , 49.9988      
845.1770     , 0.0000       , 10.0000      , 22.0000      , 0.0015       , 0.0216       , -2.7054      , -0.0000      , 0.0014       , -2.7054      , 0.0000       , 0.0000       , 0.0000       , 0.0871       , 0.0000       , -4500.0000   , -4500.0000   , -4500.0000   , 100.0000     , -0.0015      , -0.0022      , -0.0008      , 4.9999       , 0.0000       , -0.0015      , 0.0000       , 49.9986      
845.1950     , 0.0000       , 10.0000      , 22.0000      , 0.0015       , 0.0216       , -2.7054      , -0.0000      , 0.0015       , -2.7054      , 0.0000       , 0.0000       , 0.0000       , 0.0871       , 0.0000       , -4500.0000   , -4500.0000   , -4500.0000   , 100.0000     , -0.0015      , -0.0022      , -0.0008      , 4.9999       , 0.0000       , -0.0015      , 0.0000       , 49.9985      
845.2280     , 0.0000       , 10.0000      , 22.0000      , 0.0015       , 0.0217       , -2.7054      , -0.0000      , 0.0017       , -2.7054      , 0.0000       , 0.0000       , 0.0000       , 0.0871       , 0.0000       , -4500.0000   , -4500.0000   , -4500.0000   , 100.0000     , -0.0015      , -0.0022      , -0.0008      , 4.9998       , 0.0000       , -0.0015      , 0.0000       , 49.9983      
845.2460     , 0.0000       , 10.0000      , 22.0000      , 0.0015       , 0.0217       , -2.7054      , -0.0000      , 0.0018       , -2.7054      , 0.0000       , 0.0000       , 0.0000       , 0.0871       , 0.0000       , -4500.0000   , -4500.0000   , -4500.0000   , 100.0000     , -0.0015      , -0.0022      , -0.0008      , 4.9998       , 0.0000       , -0.0015      , 0.0000       , 49.9982      
845.2650     , 0.0000       , 10.0000      , 22.0000      , 0.0015       , 0.0217       , -2.7054      , -0.0000      , 0.0018       , -2.7054      , 0.0000       , 0.0000       , 0.0000       , 0.0871       , 0.0000       , -4500.0000   , -4500.0000   , -4500.0000   , 100.0000     , -0.0015      , -0.0022      , -0.0008      , 4.9998       , 0.0000       , -0.0015      , 0.0000       , 49.9982      
845.2790     , 0.0000       , 10.0000      , 22.0000      , 0.0015       , 0.0217       , -2.7054      , -0.0000      , 0.0019       , -2.7054      , 0.0000       , 0.0000       , 0.0000       , 0.0871       , 0.0000       , -4500.0000   , -4500.0000   , -4500.0000   , 100.0000     , -0.0015      , -0.0022      , -0.0008      , 4.9998       , 0.0000       , -0.0015      , 0.0000       , 49.9981      
845.2960     , 0.0000       , 10.0000      , 22.0000      , 0.0015       , 0.0218       , -2.7054      , -0.0000      , 0.0019       , -2.7054      , 0.0000       , 0.0000       , 0.0000       , 0.0871       , 0.0000       , -4500.0000   , -4500.0000   , -4500.0000   , 100.0000     , -0.0015      , -0.0022      , -0.0008      , 4.9998       , 0.0000       , -0.0015      , 0.0000       , 49.9981      
845.3150     , 0.0000       , 10.0000      , 22.0000      , 0.0015       , 0.0218       , -2.7054      , -0.0000      , 0.0020       , -2.7054      , 0.0000       , 0.0000       , 0.0000       , 0.0871       , 0.0000       , -4500.0000   , -4500.0000   , -4500.0000   , 100.0000     , -0.0015      , -0.0022      , -0.0008      , 4.9998       , 0.0000       , -0.0015      , 0.0000       , 49.9980      
845.3410     , 0.0000       , 10.0000      , 22.0000      , 0.0015       , 0.0218       , -2.7054      , -0.0000      , 0.0020       , -2.7054      , 0.0000       , 0.0000       , 0.0000       , 0.0871       , 0.0000       , -4500.0000   , -4500.0000   , -4500.0000   , 100.0000     , -0.0015      , -0.0022      , -0.0008      , 4.9998       , 0.0000       , -0.0015      , 0.0000       , 49.9980      
845.3580     , 0.0000       , 10.0000      , 22.0000      , 0.0015       , 0.0218       , -2.7054      , -0.0000      , 0.0020       , -2.7054      , 0.0000       , 0.0000       , 0.0000       , 0.0871       , 0.0000       , -4500.0000   , -4500.0000   , -4500.0000   , 100.0000     , -0.0015      , -0.0022      , -0.0008      , 4.9998       , 0.0000       , -0.0015      , 0.0000       , 49.9980      
845.3880     , 0.0000       , 10.0000      , 22.0000      , 0.0015       , 0.0219       , -2.7054      , -0.0000      , 0.0020       , -2.7054      , 0.0000       , 0.0000       , 0.0000       , 0.0871       , 0.0000       , -4500.0000   , -4500.0000   , -4500.0000   , 100.0000     , -0.0015      , -0.0022      , -0.0008      , 4.9998       , 0.0000       , -0.0015      , 0.0000       , 49.9980      
845.4070     , 0.0000       , 10.0000      , 22.0000      , 0.0015       , 0.0219       , -2.7054      , -0.0000      , 0.0020       , -2.7054      , 0.0000       , 0.0000       , 0.0000       , 0.0871       , 0.0000       , -4500.0000   , -4500.0000   , -4500.0000   , 100.0000     , -0.0015      , -0.0022      , -0.0008      , 4.9998       , 0.0000       , -0.0015      , 0.0000       , 49.9980      
845.4290     , 0.0000       , 10.0000      , 22.0000      , 0.0015       , 0.0219       , -2.7054      , -0.0000      , 0.0019       , -2.7054      , 0.0000       , 0.0000       , 0.0000       , 0.0871       , 0.0000       , -4500.0000   , -4500.0000   , -4500.0000   , 100.0000     , -0.0015      , -0.0022      , -0.0008      , 4.9998       , 0.0000       , -0.0015      , 0.0000       , 49.9981      
845.4500     , 0.0000       , 10.0000      , 22.0000      , 0.0015       , 0.0219       , -2.7054      , -0.0000      , 0.0019       , -2.7054      , 0.0000       , 0.0000       , 0.0000       , 0.0871       , 0.0000       , -4500.0000   , -4500.0000   , -4500.0000   , 100.0000     , -0.0015      , -0.0022      , -0.0008      , 4.9998       , 0.0000       , -0.0015      , 0.0000       , 49.9981      
845.4690     , 0.0000       , 10.0000      , 22.0000      , 0.0015       , 0.0219       , -2.7054      , -0.0000      , 0.0018       , -2.7054      , 0.0000       , 0.0000       , 0.0000       , 0.0871       , 0.0000       , -4500.0000   , -4500.0000   , -4500.0000   , 100.0000     , -0.0015      , -0.0022      , -0.0008      , 4.9998       , 0.0000       , -0.0015      , 0.0000       , 49.9982      
845.4890     , 0.0000       , 10.0000      , 22.0000      , 0.0015       , 0.0220       , -2.7054      , -0.0000      , 0.0017       , -2.7054      , 0.0000       , 0.0000       , 0.0000       , 0.0871       , 0.0000       , -4500.0000   , -4500.0000   , -4500.0000   , 100.0000     , -0.0015      , -0.0022      , -0.0008      , 4.9998       , 0.0000       , -0.0015      , 0.0000       , 49.9983      
845.5090     , 0.0000       , 10.0000      , 22.0000      , 0.0015       , 0.0220       , -2.7054      , -0.0000      , 0.0016       , -2.7054      , 0.0000       , 0.0000       , 0.0000       , 0.0871       , 0.0000       , -4500.0000   , -4500.0000   , -4500.0000   , 100.0000     , -0.0015      , -0.0022      , -0.0008      , 4.9998       , 0.0000       , -0.0015      , 0.0000       , 49.9984      
845.5450     , 0.0000       , 10.0000      , 22.0000      , 0.0015       , 0.0220       , -2.7054      , -0.0000      , 0.0014       , -2.7054      , 0.0000       , 0.0000       , 0.0000       , 0.0871       , 0.0000       , -4500.0000   , -4500.0000   , -4500.0000   , 100.0000     , -0.0015      , -0.0022      , -0.0008      , 4.9999       , 0.0000       , -0.0015      , 0.0000       , 49.9986      
845.5620     , 0.0000       , 10.0000      , 22.0000      , 0.0015       , 0.0220       , -2.7054      , -0.0000      , 0.0013       , -2.7054      , 0.0000       , 0.0000       , 0.0000       , 0.0871       , 0.0000       , -4500.0000   , -4500.0000   , -4500.0000   , 100.0000     , -0.0015      , -0.0022      , -0.0008      , 4.9999       , 0.0000       , -0.0015      , 0.0000       , 49.9987      
845.5810     , 0.0000       , 10.0000      , 22.0000      , 0.0015       , 0.0220       , -2.7054      , -0.0000      , 0.0012       , -2.7054      , 0.0000       , 0.0000       , 0.0000       , 0.0871       , 0.0000       , -4500.0000   , -4500.0000   , -4500.0000   , 100.0000     , -0.0015      , -0.0022      , -0.0008      , 4.9999       , 0.0000       , -0.0015      , 0.0000       , 49.9988      
845.5980     , 0.0000       , 10.0000      , 22.0000      , 0.0015       , 0.0220       , -2.7054      , -0.0000      , 0.0011       , -2.7054      , 0.0000       , 0.0000       , 0.0000       , 0.0871       , 0.0000       , -4500.0000   , -4500.0000   , -4500.0000   , 100.0000     , -0.0015      , -0.0022      , -0.0008      , 4.9999       , 0.0000       , -0.0015      , 0.0000       , 49.9989      
845.6330     , 0.0000       , 10.0000      , 22.0000      , 0.0015       , 0.0221       , -2.7054      , -0.0000      , 0.0009       , -2.7054      , 0.0000       , 0.0000       , 0.0000       , 0.0871       , 0.0000       , -4500.0000   , -4500.0000   , -4500.0000   , 100.0000     , -0.0015      , -0.0022      , -0.0008      , 4.9999       , 0.0000       , -0.0015      , 0.0000       , 49.9991      
845.6340     , 0.0000       , 10.0000      , 22.0000      , 0.0015       , 0.0221       , -2.7054      , -0.0000      , 0.0009       , -2.7054      , 0.0000       , 0.0000       , 0.0000       , 0.0871       , 0.0000       , -4500.0000   , -4500.0000   , -4500.0000   , 100.0000     , -0.0015      , -0.0022      , -0.0008      , 4.9999       , 0.0000       , -0.0015      , 0.0000       , 49.9991      
845.6570     , 0.0000       , 10.0000      , 22.0000      , 0.0015       , 0.0221       , -2.7054      , -0.0000      , 0.0008       , -2.7054      , 0.0000       , 0.0000       , 0.0000       , 0.0871       , 0.0000       , -4500.0000   , -4500.0000   , -4500.0000   , 100.0000     , -0.0015      , -0.0022      , -0.0008      , 4.9999       , 0.0000       , -0.0015      , 0.0000       , 49.9992      
845.6770     , 0.0000       , 10.0000      , 22.0000      , 0.0015       , 0.0221       , -2.7054      , -0.0000      , 0.0006       , -2.7054      , 0.0000       , 0.0000       , 0.0000       , 0.0871       , 0.0000       , -4500.0000   , -4500.0000   , -4500.0000   , 100.0000     , -0.0015      , -0.0022      , -0.0008      , 4.9999       , 0.0000       , -0.0015      , 0.0000       , 49.9994      
845.6970     , 0.0000       , 10.0000      , 22.0000      , 0.0015       , 0.0221       , -2.7054      , -0.0000      , 0.0005       , -2.7054      , 0.0000       , 0.0000       , 0.0000       , 0.0871       , 0.0000       , -4500.0000   , -4500.0000   , -4500.0000   , 100.0000     , -0.0015      , -0.0022      , -0.0008      , 4.9999       , 0.0000       , -0.0015      , 0.0000       , 49.9995      
845.7170     , 0.0000       , 10.0000      , 22.0000      , 0.0015       , 0.0221       , -2.7054      , -0.0000      , 0.0004       , -2.7054      , 0.0000       , 0.0000       , 0.0000       , 0.0871       , 0.0000       , -4500.0000   , -4500.0000   , -4500.0000   , 100.0000     , -0.0015      , -0.0022      , -0.0008      , 5.0000       , 0.0000       , -0.0015      , 0.0000       , 49.9996      
845.7370     , 0.0000       , 10.0000      , 22.0000      , 0.0015       , 0.0221       , -2.7054      , -0.0000      , 0.0003       , -2.7054      , 0.0000       , 0.0000       , 0.0000       , 0.0871       , 0.0000       , -4500.0000   , -4500.0000   , -4500.0000   , 100.0000     , -0.0015      , -0.0022      , -0.0008      , 5.0000       , 0.0000       , -0.0015      , 0.0000       , 49.9997      
845.7570     , 0.0000       , 10.0000      , 22.0000      , 0.0015       , 0.0221       , -2.7054      , -0.0000      , 0.0002       , -2.7054      , 0.0000       , 0.0000       , 0.0000       , 0.0871       , 0.0000       , -4500.0000   , -4500.0000   , -4500.0000   , 100.0000     , -0.0015      , -0.0022      , -0.0008      , 5.0000       , 0.0000       , -0.0015      , 0.0000       , 49.9998      
845.7770     , 0.0000       , 10.0000      , 22.0000      , 0.0015       , 0.0221       , -2.7054      , -0.0000      , 0.0000       , -2.7054      , 0.0000       , 0.0000       , 0.0000       , 0.0871       , 0.0000       , -4500.0000   , -4500.0000   , -4500.0000   , 100.0000     , -0.0015      , -0.0022      , -0.0008      , 5.0000       , 0.0000       , -0.0015      , 0.0000       , 50.0000      
845.8060     , 0.0000       , 10.0000      , 22.0000      , 0.0015       , 0.0221       , -2.7054      , -0.0000      , 0.0001       , -2.7054      , 0.0000       , 0.0000       , 0.0000       , 0.0871       , 0.0000       , -4500.0000   , -4500.0000   , -4500.0000   , 100.0000     , -0.0015      , -0.0022      , -0.0008      , 5.0000       , 0.0000       , -0.0015      , 0.0000       , 49.9999      
845.8220     , 0.0000       , 10.0000      , 22.0000      , 0.0015       , 0.0221       , -2.7054      , -0.0000      , 0.0002       , -2.7054      , 0.0000       , 0.0000       , 0.0000       , 0.0871       , 0.0000       , -4500.0000   , -4500.0000   , -4500.0000   , 100.0000     , -0.0015      , -0.0022      , -0.0008      , 5.0000       , 0.0000       , -0.0015      , 0.0000       , 49.9998      
845.8390     , 0.0000       , 10.0000      , 22.0000      , 0.0015       , 0.0221       , -2.7054      , -0.0000      , 0.0003       , -2.7054      , 0.0000       , 0.0000       , 0.0000       , 0.0871       , 0.0000       , -4500.0000   , -4500.0000   , -4500.0000   , 100.0000     , -0.0015      , -0.0022      , -0.0008      , 5.0000       , 0.0000       , -0.0015      , 0.0000       , 49.9997      
845.8610     , 0.0000       , 10.0000      , 22.0000      , 0.0015       , 0.0221       , -2.7054      , -0.0000      , 0.0004       , -2.7054      , 0.0000       , 0.0000       , 0.0000       , 0.0871       , 0.0000       , -4500.0000   , -4500.0000   , -4500.0000   , 100.0000     , -0.0015      , -0.0022      , -0.0008      , 5.0000       , 0.0000       , -0.0015      , 0.0000       , 49.9996      
845.8820     , 0.0000       , 10.0000      , 22.0000      , 0.0015       , 0.0221       , -2.7054      , -0.0000      , 0.0004       , -2.7054      , 0.0000       , 0.0000       , 0.0000       , 0.0871       , 0.0000       , -4500.0000   , -4500.0000   , -4500.0000   , 100.0000     , -0.0015      , -0.0022      , -0.0008      , 5.0000       , 0.0000       , -0.0015      , 0.0000       , 49.9996      
845.9080     , 0.0000       , 10.0000      , 22.0000      , 0.0015       , 0.0221       , -2.7054      , -0.0000      , 0.0005       , -2.7054      , 0.0000       , 0.0000       , 0.0000       , 0.0871       , 0.0000       , -4500.0000   , -4500.0000   , -4500.0000   , 100.0000     , -0.0015      , -0.0022      , -0.0008      , 4.9999       , 0.0000       , -0.0015      , 0.0000       , 49.9995      
845.9240     , 0.0000       , 10.0000      , 22.0000      , 0.0015       , 0.0220       , -2.7054      , -0.0000      , 0.0005       , -2.7054      , 0.0000       , 0.0000       , 0.0000       , 0.0871       , 0.0000       , -4500.0000   , -4500.0000   , -4500.0000   , 100.0000     , -0.0015      , -0.0022      , -0.0008      , 4.9999       , 0.0000       , -0.0015      , 0.0000       , 49.9995      
845.9640     , 0.0000       , 10.0000      , 22.0000      , 0.0015       , 0.0220       , -2.7054      , -0.0000      , 0.0006       , -2.7054      , 0.0000       , 0.0000       , 0.0000       , 0.0871       , 0.0000       , -4500.0000   , -4500.0000   , -4500.0000   , 100.0000     , -0.0015      , -0.0022      , -0.0008      , 4.9999       , 0.0000       , -0.0015      , 0.0000       , 49.9994      
845.9650     , 0.0000       , 10.0000      , 22.0000      , 0.0015       , 0.0220       , -2.7054      , -0.0000      , 0.0006       , -2.7054      , 0.0000       , 0.0000       , 0.0000       , 0.0871       , 0.0000       , -4500.0000   , -4500.0000   , -4500.0000   , 100.0000     , -0.0015      , -0.0022      , -0.0008      , 4.9999       , 0.0000       , -0.0015      , 0.0000       , 49.9994      
845.9930     , 0.0000       , 10.0000      , 22.0000      , 0.0015       , 0.0220       , -2.7054      , -0.0000      , 0.0006       , -2.7054      , 0.0000       , 0.0000       , 0.0000       , 0.0871       , 0.0000       , -4500.0000   , -4500.0000   , -4500.0000   , 100.0000     , -0.0015      , -0.0022      , -0.0008      , 4.9999       , 0.0000       , -0.0015      , 0.0000       , 49.9994      
846.0220     , 0.0000       , 10.0000      , 22.0000      , 0.0015       , 0.0220       , -2.7054      , -0.0000      , 0.0006       , -2.7054      , 0.0000       , 0.0000       , 0.0000       , 0.0871       , 0.0000       , -4500.0000   , -4500.0000   , -4500.0000   , 100.0000     , -0.0015      , -0.0022      , -0.0008      , 4.9999       , 0.0000       , -0.0015      , 0.0000       , 49.9994      
846.0470     , 0.0000       , 10.0000      , 22.0000      , 0.0015       , 0.0220       , -2.7054      , -0.0000      , 0.0006       , -2.7054      , 0.0000       , 0.0000       , 0.0000       , 0.0871       , 0.0000       , -4500.0000   , -4500.0000   , -4500.0000   , 100.0000     , -0.0015      , -0.0022      , -0.0008      , 4.9999       , 0.0000       , -0.0015      , 0.0000       , 49.9994      
846.0650     , 0.0000       , 10.0000      , 22.0000      , 0.0015       , 0.0220       , -2.7054      , -0.0000      , 0.0006       , -2.7054      , 0.0000       , 0.0000       , 0.0000       , 0.0871       , 0.0000       , -4500.0000   , -4500.0000   , -4500.0000   , 100.0000     , -0.0015      , -0.0022      , -0.0008      , 4.9999       , 0.0000       , -0.0015      , 0.0000       , 49.9994      
846.0870     , 0.0000       , 10.0000      , 22.0000      , 0.0015       , 0.0220       , -2.7054      , -0.0000      , 0.0006       , -2.7054      , 0.0000       , 0.0000       , 0.0000       , 0.0871       , 0.0000       , -4500.0000   , -4500.0000   , -4500.0000   , 100.0000     , -0.0015      , -0.0022      , -0.0008      , 4.9999       , 0.0000       , -0.0015      , 0.0000       , 49.9994      
846.1090     , 0.0000       , 10.0000      , 22.0000      , 0.0015       , 0.0220       , -2.7054      , -0.0000      , 0.0006       , -2.7054      , 0.0000       , 0.0000       , 0.0000       , 0.0871       , 0.0000       , -4500.0000   , -4500.0000   , -4500.0000   , 100.0000     , -0.0015      , -0.0022      , -0.0008      , 4.9999       , 0.0000       , -0.0015      , 0.0000       , 49.9994      
846.1290     , 0.0000       , 10.0000      , 22.0000      , 0.0015       , 0.0220       , -2.7054      , -0.0000      , 0.0005       , -2.7054      , 0.0000       , 0.0000       , 0.0000       , 0.0871       , 0.0000       , -4500.0000   , -4500.0000   , -4500.0000   , 100.0000     , -0.0015      , -0.0022      , -0.0008      , 4.9999       , 0.0000       , -0.0015      , 0.0000       , 49.9995      
846.1550     , 0.0000       , 10.0000      , 22.0000      , 0.0015       , 0.0220       , -2.7054      , -0.0000      , 0.0005       , -2.7054      , 0.0000       , 0.0000       , 0.0000       , 0.0871       , 0.0000       , -4500.0000   , -4500.0000   , -4500.0000   , 100.0000     , -0.0015      , -0.0022      , -0.0008      , 4.9999       , 0.0000       , -0.0015      , 0.0000       , 49.9995      
846.1700     , 0.0000       , 10.0000      , 22.0000      , 0.0015       , 0.0220       , -2.7054      , -0.0000      , 0.0005       , -2.7054      , 0.0000       , 0.0000       , 0.0000       , 0.0871       , 0.0000       , -4500.0000   , -4500.0000   , -4500.0000   , 100.0000     , -0.0015      , -0.0022      , -0.0008      , 4.9999       , 0.0000       , -0.0015      , 0.0000       , 49.9995      
846.2090     , 0.0000       , 10.0000      , 22.0000      , 0.0015       , 0.0219       , -2.7055      , -0.0000      , 0.0005       , -2.7054      , 0.0000       , 0.0000       , 0.0000       , 0.0871       , 0.0000       , -4500.0000   , -4500.0000   , -4500.0000   , 100.0000     , -0.0015      , -0.0022      , -0.0008      , 5.0000       , 0.0000       , -0.0015      , 0.0000       , 49.9995      
846.2340     , 0.0000       , 10.0000      , 22.0000      , 0.0015       , 0.0219       , -2.7055      , -0.0000      , 0.0004       , -2.7054      , 0.0000       , 0.0000       , 0.0000       , 0.0871       , 0.0000       , -4500.0000   , -4500.0000   , -4500.0000   , 100.0000     , -0.0015      , -0.0022      , -0.0008      , 5.0000       , 0.0000       , -0.0015      , 0.0000       , 49.9996      
846.2560     , 0.0000       , 10.0000      , 22.0000      , 0.0015       , 0.0219       , -2.7055      , -0.0000      , 0.0004       , -2.7054      , 0.0000       , 0.0000       , 0.0000       , 0.0871       , 0.0000       , -4500.0000   , -4500.0000   , -4500.0000   , 100.0000     , -0.0015      , -0.0022      , -0.0008      , 5.0000       , 0.0000       , -0.0015      , 0.0000       , 49.9996      
846.2750     , 0.0000       , 10.0000      , 22.0000      , 0.0015       , 0.0219       , -2.7055      , -0.0000      , 0.0004       , -2.7055      , 0.0000       , 0.0000       , 0.0000       , 0.0871       , 0.0000       , -4500.0000   , -4500.0000   , -4500.0000   , 100.0000     , -0.0015      , -0.0022      , -0.0008      , 5.0000       , 0.0000       , -0.0015      , 0.0000       , 49.9996      
846.2950     , 0.0000       , 10.0000      , 22.0000      , 0.0015       , 0.0219       , -2.7055      , -0.0000      , 0.0004       , -2.7055      , 0.0000       , 0.0000       , 0.0000       , 0.0871       , 0.0000       , -4500.0000   , -4500.0000   , -4500.0000   , 100.0000     , -0.0015      , -0.0022      , -0.0008      , 5.0000       , 0.0000       , -0.0015      , 0.0000       , 49.9996      
846.3220     , 0.0000       , 10.0000      , 22.0000      , 0.0015       , 0.0219       , -2.7055      , -0.0000      , 0.0003       , -2.7055      , 0.0000       , 0.0000       , 0.0000       , 0.0871       , 0.0000       , -4500.0000   , -4500.0000   , -4500.0000   , 100.0000     , -0.0015      , -0.0022      , -0.0008      , 5.0000       , 0.0000       , -0.0015      , 0.0000       , 49.9997      
846.3420     , 0.0000       , 10.0000      , 22.0000      , 0.0015       , 0.0219       , -2.7055      , -0.0000      , 0.0002       , -2.7055      , 0.0000       , 0.0000       , 0.0000       , 0.0871       , 0.0000       , -4500.0000   , -4500.0000   , -4500.0000   , 100.0000     , -0.0015      , -0.0022      , -0.0008      , 5.0000       , 0.0000       , -0.0015      , 0.0000       , 49.9998      
846.3620     , 0.0000       , 10.0000      , 22.0000      , 0.0015       , 0.0219       , -2.7055      , -0.0000      , 0.0002       , -2.7055      , 0.0000       , 0.0000       , 0.0000       , 0.0871       , 0.0000       , -4500.0000   , -4500.0000   , -4500.0000   , 100.0000     , -0.0015      , -0.0022      , -0.0008      , 5.0000       , 0.0000       , -0.0015      , 0.0000       , 49.9998      
846.3860     , 0.0000       , 10.0000      , 22.0000      , 0.0015       , 0.0219       , -2.7055      , -0.0000      , 0.0002       , -2.7055      , 0.0000       , 0.0000       , 0.0000       , 0.0871       , 0.0000       , -4500.0000   , -4500.0000   , -4500.0000   , 100.0000     , -0.0015      , -0.0022      , -0.0008      , 5.0000       , 0.0000       , -0.0015      , 0.0000       , 49.9998      
846.4260     , 0.0000       , 10.0000      , 22.0000      , 0.0015       , 0.0219       , -2.7055      , -0.0000      , 0.0001       , -2.7055      , 0.0000       , 0.0000       , 0.0000       , 0.0871       , 0.0000       , -4500.0000   , -4500.0000   , -4500.0000   , 100.0000     , -0.0015      , -0.0022      , -0.0008      , 5.0000       , 0.0000       , -0.0015      , 0.0000       , 49.9999      
846.4270     , 0.0000       , 10.0000      , 22.0000      , 0.0015       , 0.0219       , -2.7055      , -0.0000      , 0.0001       , -2.7055      , 0.0000       , 0.0000       , 0.0000       , 0.0871       , 0.0000       , -4500.0000   , -4500.0000   , -4500.0000   , 100.0000     , -0.0015      , -0.0022      , -0.0008      , 5.0000       , 0.0000       , -0.0015      , 0.0000       , 49.9999      
846.4470     , 0.0000       , 10.0000      , 22.0000      , 0.0015       , 0.0219       , -2.7055      , -0.0000      , 0.0001       , -2.7055      , 0.0000       , 0.0000       , 0.0000       , 0.0871       , 0.0000       , -4500.0000   , -4500.0000   , -4500.0000   , 100.0000     , -0.0015      , -0.0022      , -0.0008      , 5.0000       , 0.0000       , -0.0015      , 0.0000       , 49.9999      
846.4670     , 0.0000       , 10.0000      , 22.0000      , 0.0015       , 0.0219       , -2.7055      , -0.0000      , 0.0001       , -2.7055      , 0.0000       , 0.0000       , 0.0000       , 0.0871       , 0.0000       , -4500.0000   , -4500.0000   , -4500.0000   , 100.0000     , -0.0015      , -0.0022      , -0.0008      , 5.0000       , 0.0000       , -0.0015      , 0.0000       , 49.9999      
846.4870     , 0.0000       , 10.0000      , 22.0000      , 0.0015       , 0.0219       , -2.7055      , -0.0000      , 0.0000       , -2.7055      , 0.0000       , 0.0000       , 0.0000       , 0.0871       , 0.0000       , -4500.0000   , -4500.0000   , -4500.0000   , 100.0000     , -0.0015      , -0.0022      , -0.0008      , 5.0000       , 0.0000       , -0.0015      , 0.0000       , 50.0000      
846.5120     , 0.0000       , 10.0000      , 22.0000      , 0.0015       , 0.0219       , -2.7055      , -0.0000      , 0.0000       , -2.7055      , 0.0000       , 0.0000       , 0.0000       , 0.0871       , 0.0000       , -4500.0000   , -4500.0000   , -4500.0000   , 100.0000     , -0.0015      , -0.0022      , -0.0008      , 5.0000       , 0.0000       , -0.0015      , 0.0000       , 50.0000      
846.5280     , 0.0000       , 10.0000      , 22.0000      , 0.0015       , 0.0219       , -2.7055      , -0.0000      , 0.0000       , -2.7055      , 0.0000       , 0.0000       , 0.0000       , 0.0871       , 0.0000       , -4500.0000   , -4500.0000   , -4500.0000   , 100.0000     , -0.0015      , -0.0022      , -0.0008      , 5.0000       , 0.0000       , -0.0015      , 0.0000       , 50.0000      
846.5500     , 0.0000       , 10.0000      , 22.0000      , 0.0015       , 0.0219       , -2.7055      , -0.0000      , 0.0001       , -2.7055      , 0.0000       , 0.0000       , 0.0000       , 0.0871       , 0.0000       , -4500.0000   , -4500.0000   , -4500.0000   , 100.0000     , -0.0015      , -0.0022      , -0.0008      , 5.0000       , 0.0000       , -0.0015      , 0.0000       , 49.9999      
846.5710     , 0.0000       , 10.0000      , 22.0000      , 0.0015       , 0.0219       , -2.7055      , -0.0000      , 0.0001       , -2.7055      , 0.0000       , 0.0000       , 0.0000       , 0.0871       , 0.0000       , -4500.0000   , -4500.0000   , -4500.0000   , 100.0000     , -0.0015      , -0.0022      , -0.0008      , 5.0000       , 0.0000       , -0.0015      , 0.0000       , 49.9999      
846.5900     , 0.0000       , 10.0000      , 22.0000      , 0.0015       , 0.0219       , -2.7055      , -0.0000      , 0.0001       , -2.7055      , 0.0000       , 0.0000       , 0.0000       , 0.0871       , 0.0000       , -4500.0000   , -4500.0000   , -4500.0000   , 100.0000     , -0.0015      , -0.0022      , -0.0008      , 5.0000       , 0.0000       , -0.0015      , 0.0000       , 49.9999      
846.6100     , 0.0000       , 10.0000      , 22.0000      , 0.0015       , 0.0219       , -2.7055      , -0.0000      , 0.0002       , -2.7055      , 0.0000       , 0.0000       , 0.0000       , 0.0871       , 0.0000       , -4500.0000   , -4500.0000   , -4500.0000   , 100.0000     , -0.0015      , -0.0022      , -0.0008      , 5.0000       , 0.0000       , -0.0015      , 0.0000       , 49.9998      
846.6390     , 0.0000       , 10.0000      , 22.0000      , 0.0015       , 0.0219       , -2.7055      , -0.0000      , 0.0002       , -2.7055      , 0.0000       , 0.0000       , 0.0000       , 0.0871       , 0.0000       , -4500.0000   , -4500.0000   , -4500.0000   , 100.0000     , -0.0015      , -0.0022      , -0.0008      , 5.0000       , 0.0000       , -0.0015      , 0.0000       , 49.9998      
846.6530     , 0.0000       , 10.0000      , 22.0000      , 0.0015       , 0.0219       , -2.7055      , -0.0000      , 0.0002       , -2.7055      , 0.0000       , 0.0000       , 0.0000       , 0.0871       , 0.0000       , -4500.0000   , -4500.0000   , -4500.0000   , 100.0000     , -0.0015      , -0.0022      , -0.0008      , 5.0000       , 0.0000       , -0.0015      , 0.0000       , 49.9998      
846.6700     , 0.0000       , 10.0000      , 22.0000      , 0.0015       , 0.0219       , -2.7055      , -0.0000      , 0.0002       , -2.7055      , 0.0000       , 0.0000       , 0.0000       , 0.0871       , 0.0000       , -4500.0000   , -4500.0000   , -4500.0000   , 100.0000     , -0.0015      , -0.0022      , -0.0008      , 5.0000       , 0.0000       , -0.0015      , 0.0000       , 49.9998      
846.6900     , 0.0000       , 10.0000      , 22.0000      , 0.0015       , 0.0219       , -2.7055      , -0.0000      , 0.0002       , -2.7055      , 0.0000       , 0.0000       , 0.0000       , 0.0871       , 0.0000       , -4500.0000   , -4500.0000   , -4500.0000   , 100.0000     , -0.0015      , -0.0022      , -0.0008      , 5.0000       , 0.0000       , -0.0015      , 0.0000       , 49.9998      
846.7140     , 0.0000       , 10.0000      , 22.0000      , 0.0015       , 0.0219       , -2.7055      , -0.0000      , 0.0003       , -2.7055      , 0.0000       , 0.0000       , 0.0000       , 0.0871       , 0.0000       , -4500.0000   , -4500.0000   , -4500.0000   , 100.0000     , -0.0015      , -0.0022      , -0.0008      , 5.0000       , 0.0000       , -0.0015      , 0.0000       , 49.9997      
846.7350     , 0.0000       , 10.0000      , 22.0000      , 0.0015       , 0.0219       , -2.7055      , -0.0000      , 0.0003       , -2.7055      , 0.0000       , 0.0000       , 0.0000       , 0.0871       , 0.0000       , -4500.0000   , -4500.0000   , -4500.0000   , 100.0000     , -0.0015      , -0.0022      , -0.0008      , 5.0000       , 0.0000       , -0.0015      , 0.0000       , 49.9997      
846.7540     , 0.0000       , 10.0000      , 22.0000      , 0.0015       , 0.0220       , -2.7055      , -0.0000      , 0.0003       , -2.7055      , 0.0000       , 0.0000       , 0.0000       , 0.0871       , 0.0000       , -4500.0000   , -4500.0000   , -4500.0000   , 100.0000     , -0.0015      , -0.0022      , -0.0008      , 5.0000       , 0.0000       , -0.0015      , 0.0000       , 49.9997      
846.7700     , 0.0000       , 10.0000      , 22.0000      , 0.0015       , 0.0220       , -2.7055      , -0.0000      , 0.0003       , -2.7055      , 0.0000       , 0.0000       , 0.0000       , 0.0871       , 0.0000       , -4500.0000   , -4500.0000   , -4500.0000   , 100.0000     , -0.0015      , -0.0022      , -0.0008      , 5.0000       , 0.0000       , -0.0015      , 0.0000       , 49.9997      
846.7910     , 0.0000       , 10.0000      , 22.0000      , 0.0015       , 0.0220       , -2.7055      , -0.0000      , 0.0003       , -2.7055      , 0.0000       , 0.0000       , 0.0000       , 0.0871       , 0.0000       , -4500.0000   , -4500.0000   , -4500.0000   , 100.0000     , -0.0015      , -0.0022      , -0.0008      , 5.0000       , 0.0000       , -0.0015      , 0.0000       , 49.9997      
846.8100     , 0.0000       , 10.0000      , 22.0000      , 0.0015       , 0.0220       , -2.7055      , -0.0000      , 0.0002       , -2.7055      , 0.0000       , 0.0000       , 0.0000       , 0.0871       , 0.0000       , -4500.0000   , -4500.0000   , -4500.0000   , 100.0000     , -0.0015      , -0.0022      , -0.0008      , 5.0000       , 0.0000       , -0.0015      , 0.0000       , 49.9998      
846.8350     , 0.0000       , 10.0000      , 22.0000      , 0.0015       , 0.0220       , -2.7055      , -0.0000      , 0.0002       , -2.7055      , 0.0000       , 0.0000       , 0.0000       , 0.0871       , 0.0000       , -4500.0000   , -4500.0000   , -4500.0000   , 100.0000     , -0.0015      , -0.0022      , -0.0008      , 5.0000       , 0.0000       , -0.0015      , 0.0000       , 49.9998      
846.8500     , 0.0000       , 10.0000      , 22.0000      , 0.0015       , 0.0220       , -2.7055      , -0.0000      , 0.0002       , -2.7055      , 0.0000       , 0.0000       , 0.0000       , 0.0871       , 0.0000       , -4500.0000   , -4500.0000   , -4500.0000   , 100.0000     , -0.0015      , -0.0022      , -0.0008      , 5.0000       , 0.0000       , -0.0015      , 0.0000       , 49.9998      
846.8830     , 0.0000       , 10.0000      , 22.0000      , 0.0015       , 0.0220       , -2.7055      , -0.0000      , 0.0002       , -2.7055      , 0.0000       , 0.0000       , 0.0000       , 0.0871       , 0.0000       , -4500.0000   , -4500.0000   , -4500.0000   , 100.0000     , -0.0015      , -0.0022      , -0.0008      , 5.0000       , 0.0000       , -0.0015      , 0.0000       , 49.9998      
846.8980     , 0.0000       , 10.0000      , 22.0000      , 0.0015       , 0.0220       , -2.7055      , -0.0000      , 0.0002       , -2.7055      , 0.0000       , 0.0000       , 0.0000       , 0.0871       , 0.0000       , -4500.0000   , -4500.0000   , -4500.0000   , 100.0000     , -0.0015      , -0.0022      , -0.0008      , 5.0000       , 0.0000       , -0.0015      , 0.0000       , 49.9998      
846.9150     , 0.0000       , 10.0000      , 22.0000      , 0.0015       , 0.0220       , -2.7055      , -0.0000      , 0.0002       , -2.7055      , 0.0000       , 0.0000       , 0.0000       , 0.0871       , 0.0000       , -4500.0000   , -4500.0000   , -4500.0000   , 100.0000     , -0.0015      , -0.0022      , -0.0008      , 5.0000       , 0.0000       , -0.0015      , 0.0000       , 49.9998      
846.9370     , 0.0000       , 10.0000      , 22.0000      , 0.0015       , 0.0220       , -2.7055      , -0.0000      , 0.0002       , -2.7055      , 0.0000       , 0.0000       , 0.0000       , 0.0871       , 0.0000       , -4500.0000   , -4500.0000   , -4500.0000   , 100.0000     , -0.0015      , -0.0022      , -0.0008      , 5.0000       , 0.0000       , -0.0015      , 0.0000       , 49.9998      
846.9550     , 0.0000       , 10.0000      , 22.0000      , 0.0015       , 0.0220       , -2.7055      , -0.0000      , 0.0001       , -2.7055      , 0.0000       , 0.0000       , 0.0000       , 0.0871       , 0.0000       , -4500.0000   , -4500.0000   , -4500.0000   , 100.0000     , -0.0015      , -0.0022      , -0.0008      , 5.0000       , 0.0000       , -0.0015      , 0.0000       , 49.9999      
846.9710     , 0.0000       , 10.0000      , 22.0000      , 0.0015       , 0.0220       , -2.7055      , -0.0000      , 0.0001       , -2.7055      , 0.0000       , 0.0000       , 0.0000       , 0.0871       , 0.0000       , -4500.0000   , -4500.0000   , -4500.0000   , 100.0000     , -0.0015      , -0.0022      , -0.0008      , 5.0000       , 0.0000       , -0.0015      , 0.0000       , 49.9999      
846.9900     , 0.0000       , 10.0000      , 22.0000      , 0.0015       , 0.0220       , -2.7055      , -0.0000      , 0.0001       , -2.7055      , 0.0000       , 0.0000       , 0.0000       , 0.0871       , 0.0000       , -4500.0000   , -4500.0000   , -4500.0000   , 100.0000     , -0.0015      , -0.0022      , -0.0008      , 5.0000       , 0.0000       , -0.0015      , 0.0000       , 49.9999      
847.0100     , 0.0000       , 10.0000      , 22.0000      , 0.0015       , 0.0220       , -2.7055      , -0.0000      , 0.0001       , -2.7055      , 0.0000       , 0.0000       , 0.0000       , 0.0871       , 0.0000       , -4500.0000   , -4500.0000   , -4500.0000   , 100.0000     , -0.0015      , -0.0022      , -0.0008      , 5.0000       , 0.0000       , -0.0015      , 0.0000       , 49.9999      
847.0300     , 0.0000       , 10.0000      , 22.0000      , 0.0015       , 0.0220       , -2.7055      , -0.0000      , 0.0001       , -2.7055      , 0.0000       , 0.0000       , 0.0000       , 0.0871       , 0.0000       , -4500.0000   , -4500.0000   , -4500.0000   , 100.0000     , -0.0015      , -0.0022      , -0.0008      , 5.0000       , 0.0000       , -0.0015      , 0.0000       , 49.9999      
847.0600     , 0.0000       , 10.0000      , 22.0000      , 0.0015       , 0.0220       , -2.7055      , -0.0000      , 0.0002       , -2.7055      , 0.0000       , 0.0000       , 0.0000       , 0.0871       , 0.0000       , -4500.0000   , -4500.0000   , -4500.0000   , 100.0000     , -0.0015      , -0.0022      , -0.0008      , 5.0000       , 0.0000       , -0.0015      , 0.0000       , 49.9998      
847.0740     , 0.0000       , 10.0000      , 22.0000      , 0.0015       , 0.0220       , -2.7055      , -0.0000      , 0.0002       , -2.7055      , 0.0000       , 0.0000       , 0.0000       , 0.0871       , 0.0000       , -4500.0000   , -4500.0000   , -4500.0000   , 100.0000     , -0.0015      , -0.0022      , -0.0008      , 5.0000       , 0.0000       , -0.0015      , 0.0000       , 49.9998      
847.0910     , 0.0000       , 10.0000      , 22.0000      , 0.0015       , 0.0220       , -2.7055      , -0.0000      , 0.0002       , -2.7055      , 0.0000       , 0.0000       , 0.0000       , 0.0871       , 0.0000       , -4500.0000   , -4500.0000   , -4500.0000   , 100.0000     , -0.0015      , -0.0022      , -0.0008      , 5.0000       , 0.0000       , -0.0015      , 0.0000       , 49.9998      
847.1150     , 0.0000       , 10.0000      , 22.0000      , 0.0015       , 0.0220       , -2.7055      , -0.0000      , 0.0002       , -2.7055      , 0.0000       , 0.0000       , 0.0000       , 0.0871       , 0.0000       , -4500.0000   , -4500.0000   , -4500.0000   , 100.0000     , -0.0015      , -0.0022      , -0.0008      , 5.0000       , 0.0000       , -0.0015      , 0.0000       , 49.9998      
847.1310     , 0.0000       , 10.0000      , 22.0000      , 0.0015       , 0.0220       , -2.7055      , -0.0000      , 0.0003       , -2.7055      , 0.0000       , 0.0000       , 0.0000       , 0.0871       , 0.0000       , -4500.0000   , -4500.0000   , -4500.0000   , 100.0000     , -0.0015      , -0.0022      , -0.0008      , 5.0000       , 0.0000       , -0.0015      , 0.0000       , 49.9997      
847.1650     , 0.0000       , 10.0000      , 22.0000      , 0.0015       , 0.0220       , -2.7055      , -0.0000      , 0.0003       , -2.7055      , 0.0000       , 0.0000       , 0.0000       , 0.0871       , 0.0000       , -4500.0000   , -4500.0000   , -4500.0000   , 100.0000     , -0.0015      , -0.0022      , -0.0008      , 5.0000       , 0.0000       , -0.0015      , 0.0000       , 49.9997      
847.1810     , 0.0000       , 10.0000      , 22.0000      , 0.0015       , 0.0219       , -2.7055      , -0.0000      , 0.0003       , -2.7055      , 0.0000       , 0.0000       , 0.0000       , 0.0871       , 0.0000       , -4500.0000   , -4500.0000   , -4500.0000   , 100.0000     , -0.0015      , -0.0022      , -0.0008      , 5.0000       , 0.0000       , -0.0015      , 0.0000       , 49.9997      
847.1980     , 0.0000       , 10.0000      , 22.0000      , 0.0015       , 0.0219       , -2.7055      , -0.0000      , 0.0003       , -2.7055      , 0.0000       , 0.0000       , 0.0000       , 0.0871       , 0.0000       , -4500.0000   , -4500.0000   , -4500.0000   , 100.0000     , -0.0015      , -0.0022      , -0.0008      , 5.0000       , 0.0000       , -0.0015      , 0.0000       , 49.9997      
847.2150     , 0.0000       , 10.0000      , 22.0000      , 0.0015       , 0.0219       , -2.7055      , -0.0000      , 0.0003       , -2.7055      , 0.0000       , 0.0000       , 0.0000       , 0.0871       , 0.0000       , -4500.0000   , -4500.0000   , -4500.0000   , 100.0000     , -0.0015      , -0.0022      , -0.0008      , 5.0000       , 0.0000       , -0.0015      , 0.0000       , 49.9997      
847.2310     , 0.0000       , 10.0000      , 22.0000      , 0.0015       , 0.0219       , -2.7055      , -0.0000      , 0.0003       , -2.7055      , 0.0000       , 0.0000       , 0.0000       , 0.0871       , 0.0000       , -4500.0000   , -4500.0000   , -4500.0000   , 100.0000     , -0.0015      , -0.0022      , -0.0008      , 5.0000       , 0.0000       , -0.0015      , 0.0000       , 49.9997      
847.2500     , 0.0000       , 10.0000      , 22.0000      , 0.0015       , 0.0219       , -2.7055      , -0.0000      , 0.0003       , -2.7055      , 0.0000       , 0.0000       , 0.0000       , 0.0871       , 0.0000       , -4500.0000   , -4500.0000   , -4500.0000   , 100.0000     , -0.0015      , -0.0022      , -0.0008      , 5.0000       , 0.0000       , -0.0015      , 0.0000       , 49.9997      
847.2810     , 0.0000       , 10.0000      , 22.0000      , 0.0015       , 0.0219       , -2.7055      , -0.0000      , 0.0002       , -2.7055      , 0.0000       , 0.0000       , 0.0000       , 0.0871       , 0.0000       , -4500.0000   , -4500.0000   , -4500.0000   , 100.0000     , -0.0015      , -0.0022      , -0.0008      , 5.0000       , 0.0000       , -0.0015      , 0.0000       , 49.9998      
847.2980     , 0.0000       , 10.0000      , 22.0000      , 0.0015       , 0.0219       , -2.7055      , -0.0000      , 0.0002       , -2.7055      , 0.0000       , 0.0000       , 0.0000       , 0.0871       , 0.0000       , -4500.0000   , -4500.0000   , -4500.0000   , 100.0000     , -0.0015      , -0.0022      , -0.0008      , 5.0000       , 0.0000       , -0.0015      , 0.0000       , 49.9998      
847.3150     , 0.0000       , 10.0000      , 22.0000      , 0.0015       , 0.0219       , -2.7055      , -0.0000      , 0.0002       , -2.7055      , 0.0000       , 0.0000       , 0.0000       , 0.0871       , 0.0000       , -4500.0000   , -4500.0000   , -4500.0000   , 100.0000     , -0.0015      , -0.0022      , -0.0008      , 5.0000       , 0.0000       , -0.0015      , 0.0000       , 49.9998      
847.3320     , 0.0000       , 10.0000      , 22.0000      , 0.0015       , 0.0219       , -2.7055      , -0.0000      , 0.0002       , -2.7055      , 0.0000       , 0.0000       , 0.0000       , 0.0871       , 0.0000       , -4500.0000   , -4500.0000   , -4500.0000   , 100.0000     , -0.0015      , -0.0022      , -0.0008      , 5.0000       , 0.0000       , -0.0015      , 0.0000       , 49.9998      
847.3500     , 0.0000       , 10.0000      , 22.0000      , 0.0015       , 0.0219       , -2.7055      , -0.0000      , 0.0002       , -2.7055      , 0.0000       , 0.0000       , 0.0000       , 0.0871       , 0.0000       , -4500.0000   , -4500.0000   , -4500.0000   , 100.0000     , -0.0015      , -0.0022      , -0.0008      , 5.0000       , 0.0000       , -0.0015      , 0.0000       , 49.9998      
847.3810     , 0.0000       , 10.0000      , 22.0000      , 0.0015       , 0.0219       , -2.7055      , -0.0000      , 0.0001       , -2.7055      , 0.0000       , 0.0000       , 0.0000       , 0.0871       , 0.0000       , -4500.0000   , -4500.0000   , -4500.0000   , 100.0000     , -0.0015      , -0.0022      , -0.0008      , 5.0000       , 0.0000       , -0.0015      , 0.0000       , 49.9999      
847.3980     , 0.0000       , 10.0000      , 22.0000      , 0.0015       , 0.0219       , -2.7055      , -0.0000      , 0.0001       , -2.7055      , 0.0000       , 0.0000       , 0.0000       , 0.0871       , 0.0000       , -4500.0000   , -4500.0000   , -4500.0000   , 100.0000     , -0.0015      , -0.0022      , -0.0008      , 5.0000       , 0.0000       , -0.0015      , 0.0000       , 49.9999      
847.4150     , 0.0000       , 10.0000      , 22.0000      , 0.0015       , 0.0219       , -2.7055      , -0.0000      , 0.0000       , -2.7055      , 0.0000       , 0.0000       , 0.0000       , 0.0871       , 0.0000       , -4500.0000   , -4500.0000   , -4500.0000   , 100.0000     , -0.0015      , -0.0022      , -0.0008      , 5.0000       , 0.0000       , -0.0015      , 0.0000       , 50.0000      
847.4310     , 0.0000       , 10.0000      , 22.0000      , 0.0015       , 0.0219       , -2.7055      , -0.0000      , 0.0000       , -2.7055      , 0.0000       , 0.0000       , 0.0000       , 0.0871       , 0.0000       , -4500.0000   , -4500.0000   , -4500.0000   , 100.0000     , -0.0015      , -0.0022      , -0.0008      , 5.0000       , 0.0000       , -0.0015      , 0.0000       , 50.0000      
847.4500     , 0.0000       , 10.0000      , 22.0000      , 0.0015       , 0.0219       , -2.7055      , -0.0000      , 0.0000       , -2.7055      , 0.0000       , 0.0000       , 0.0000       , 0.0871       , 0.0000       , -4500.0000   , -4500.0000   , -4500.0000   , 100.0000     , -0.0015      , -0.0022      , -0.0008      , 5.0000       , 0.0000       , -0.0015      , 0.0000       , 50.0000      
847.4810     , 0.0000       , 10.0000      , 22.0000      , 0.0015       , 0.0219       , -2.7055      , -0.0000      , 0.0001       , -2.7055      , 0.0000       , 0.0000       , 0.0000       , 0.0871       , 0.0000       , -4500.0000   , -4500.0000   , -4500.0000   , 100.0000     , -0.0015      , -0.0022      , -0.0008      , 5.0000       , 0.0000       , -0.0015      , 0.0000       , 49.9999      
847.4980     , 0.0000       , 10.0000      , 22.0000      , 0.0015       , 0.0219       , -2.7055      , -0.0000      , 0.0001       , -2.7055      , 0.0000       , 0.0000       , 0.0000       , 0.0871       , 0.0000       , -4500.0000   , -4500.0000   , -4500.0000   , 100.0000     , -0.0015      , -0.0022      , -0.0008      , 5.0000       , 0.0000       , -0.0015      , 0.0000       , 49.9999      
847.5140     , 0.0000       , 10.0000      , 22.0000      , 0.0015       , 0.0219       , -2.7055      , -0.0000      , 0.0001       , -2.7055      , 0.0000       , 0.0000       , 0.0000       , 0.0871       , 0.0000       , -4500.0000   , -4500.0000   , -4500.0000   , 100.0000     , -0.0015      , -0.0022      , -0.0008      , 5.0000       , 0.0000       , -0.0015      , 0.0000       , 49.9999      
847.5310     , 0.0000       , 10.0000      , 22.0000      , 0.0015       , 0.0219       , -2.7055      , -0.0000      , 0.0001       , -2.7055      , 0.0000       , 0.0000       , 0.0000       , 0.0871       , 0.0000       , -4500.0000   , -4500.0000   , -4500.0000   , 100.0000     , -0.0015      , -0.0022      , -0.0008      , 5.0000       , 0.0000       , -0.0015      , 0.0000       , 49.9999      
847.5500     , 0.0000       , 10.0000      , 22.0000      , 0.0015       , 0.0219       , -2.7055      , -0.0000      , 0.0001       , -2.7055      , 0.0000       , 0.0000       , 0.0000       , 0.0871       , 0.0000       , -4500.0000   , -4500.0000   , -4500.0000   , 100.0000     , -0.0015      , -0.0022      , -0.0008      , 5.0000       , 0.0000       , -0.0015      , 0.0000       , 49.9999      
847.5810     , 0.0000       , 10.0000      , 22.0000      , 0.0015       , 0.0219       , -2.7055      , -0.0000      , 0.0002       , -2.7055      , 0.0000       , 0.0000       , 0.0000       , 0.0871       , 0.0000       , -4500.0000   , -4500.0000   , -4500.0000   , 100.0000     , -0.0015      , -0.0022      , -0.0008      , 5.0000       , 0.0000       , -0.0015      , 0.0000       , 49.9998      
847.5980     , 0.0000       , 10.0000      , 22.0000      , 0.0015       , 0.0219       , -2.7055      , -0.0000      , 0.0002       , -2.7055      , 0.0000       , 0.0000       , 0.0000       , 0.0871       , 0.0000       , -4500.0000   , -4500.0000   , -4500.0000   , 100.0000     , -0.0015      , -0.0022      , -0.0008      , 5.0000       , 0.0000       , -0.0015      , 0.0000       , 49.9998      
847.6140     , 0.0000       , 10.0000      , 22.0000      , 0.0015       , 0.0219       , -2.7055      , -0.0000      , 0.0002       , -2.7055      , 0.0000       , 0.0000       , 0.0000       , 0.0871       , 0.0000       , -4500.0000   , -4500.0000   , -4500.0000   , 100.0000     , -0.0015      , -0.0022      , -0.0008      , 5.0000       , 0.0000       , -0.0015      , 0.0000       , 49.9998      
847.6310     , 0.0000       , 10.0000      , 22.0000      , 0.0015       , 0.0219       , -2.7055      , -0.0000      , 0.0002       , -2.7055      , 0.0000       , 0.0000       , 0.0000       , 0.0871       , 0.0000       , -4500.0000   , -4500.0000   , -4500.0000   , 100.0000     , -0.0015      , -0.0022      , -0.0008      , 5.0000       , 0.0000       , -0.0015      , 0.0000       , 49.9998      
847.6640     , 0.0000       , 10.0000      , 22.0000      , 0.0015       , 0.0219       , -2.7055      , -0.0000      , 0.0002       , -2.7055      , 0.0000       , 0.0000       , 0.0000       , 0.0871       , 0.0000       , -4500.0000   , -4500.0000   , -4500.0000   , 100.0000     , -0.0015      , -0.0022      , -0.0008      , 5.0000       , 0.0000       , -0.0015      , 0.0000       , 49.9998      
847.6810     , 0.0000       , 10.0000      , 22.0000      , 0.0015       , 0.0219       , -2.7055      , -0.0000      , 0.0002       , -2.7055      , 0.0000       , 0.0000       , 0.0000       , 0.0871       , 0.0000       , -4500.0000   , -4500.0000   , -4500.0000   , 100.0000     , -0.0015      , -0.0022      , -0.0008      , 5.0000       , 0.0000       , -0.0015      , 0.0000       , 49.9998      
847.6980     , 0.0000       , 10.0000      , 22.0000      , 0.0015       , 0.0219       , -2.7055      , -0.0000      , 0.0002       , -2.7055      , 0.0000       , 0.0000       , 0.0000       , 0.0871       , 0.0000       , -4500.0000   , -4500.0000   , -4500.0000   , 100.0000     , -0.0015      , -0.0022      , -0.0008      , 5.0000       , 0.0000       , -0.0015      , 0.0000       , 49.9998      
847.7140     , 0.0000       , 10.0000      , 22.0000      , 0.0015       , 0.0219       , -2.7055      , -0.0000      , 0.0002       , -2.7055      , 0.0000       , 0.0000       , 0.0000       , 0.0871       , 0.0000       , -4500.0000   , -4500.0000   , -4500.0000   , 100.0000     , -0.0015      , -0.0022      , -0.0008      , 5.0000       , 0.0000       , -0.0015      , 0.0000       , 49.9998      
847.7310     , 0.0000       , 10.0000      , 22.0000      , 0.0015       , 0.0219       , -2.7055      , -0.0000      , 0.0002       , -2.7055      , 0.0000       , 0.0000       , 0.0000       , 0.0871       , 0.0000       , -4500.0000   , -4500.0000   , -4500.0000   , 100.0000     , -0.0015      , -0.0022      , -0.0008      , 5.0000       , 0.0000       , -0.0015      , 0.0000       , 49.9998      
847.7500     , 0.0000       , 10.0000      , 22.0000      , 0.0015       , 0.0219       , -2.7055      , -0.0000      , 0.0001       , -2.7055      , 0.0000       , 0.0000       , 0.0000       , 0.0871       , 0.0000       , -4500.0000   , -4500.0000   , -4500.0000   , 100.0000     , -0.0015      , -0.0022      , -0.0008      , 5.0000       , 0.0000       , -0.0015      , 0.0000       , 49.9999      
847.7810     , 0.0000       , 10.0000      , 22.0000      , 0.0015       , 0.0219       , -2.7055      , -0.0000      , 0.0001       , -2.7055      , 0.0000       , 0.0000       , 0.0000       , 0.0871       , 0.0000       , -4500.0000   , -4500.0000   , -4500.0000   , 100.0000     , -0.0015      , -0.0022      , -0.0008      , 5.0000       , 0.0000       , -0.0015      , 0.0000       , 49.9999      
847.7980     , 0.0000       , 10.0000      , 22.0000      , 0.0015       , 0.0219       , -2.7055      , -0.0000      , 0.0001       , -2.7055      , 0.0000       , 0.0000       , 0.0000       , 0.0871       , 0.0000       , -4500.0000   , -4500.0000   , -4500.0000   , 100.0000     , -0.0015      , -0.0022      , -0.0008      , 5.0000       , 0.0000       , -0.0015      , 0.0000       , 49.9999      
847.8140     , 0.0000       , 10.0000      , 22.0000      , 0.0015       , 0.0219       , -2.7055      , -0.0000      , 0.0001       , -2.7055      , 0.0000       , 0.0000       , 0.0000       , 0.0871       , 0.0000       , -4500.0000   , -4500.0000   , -4500.0000   , 100.0000     , -0.0015      , -0.0022      , -0.0008      , 5.0000       , 0.0000       , -0.0015      , 0.0000       , 49.9999      
847.8310     , 0.0000       , 10.0000      , 22.0000      , 0.0015       , 0.0219       , -2.7055      , -0.0000      , 0.0001       , -2.7055      , 0.0000       , 0.0000       , 0.0000       , 0.0871       , 0.0000       , -4500.0000   , -4500.0000   , -4500.0000   , 100.0000     , -0.0015      , -0.0022      , -0.0008      , 5.0000       , 0.0000       , -0.0015      , 0.0000       , 49.9999      
847.8510     , 0.0000       , 10.0000      , 22.0000      , 0.0015       , 0.0219       , -2.7055      , -0.0000      , 0.0001       , -2.7055      , 0.0000       , 0.0000       , 0.0000       , 0.0871       , 0.0000       , -4500.0000   , -4500.0000   , -4500.0000   , 100.0000     , -0.0015      , -0.0022      , -0.0008      , 5.0000       , 0.0000       , -0.0015      , 0.0000       , 49.9999      
847.8810     , 0.0000       , 10.0000      , 22.0000      , 0.0015       , 0.0219       , -2.7055      , -0.0000      , 0.0001       , -2.7055      , 0.0000       , 0.0000       , 0.0000       , 0.0871       , 0.0000       , -4500.0000   , -4500.0000   , -4500.0000   , 100.0000     , -0.0015      , -0.0022      , -0.0008      , 5.0000       , 0.0000       , -0.0015      , 0.0000       , 49.9999      
847.8980     , 0.0000       , 10.0000      , 22.0000      , 0.0015       , 0.0219       , -2.7055      , -0.0000      , 0.0001       , -2.7055      , 0.0000       , 0.0000       , 0.0000       , 0.0871       , 0.0000       , -4500.0000   , -4500.0000   , -4500.0000   , 100.0000     , -0.0015      , -0.0022      , -0.0008      , 5.0000       , 0.0000       , -0.0015      , 0.0000       , 49.9999      
847.9140     , 0.0000       , 10.0000      , 22.0000      , 0.0015       , 0.0219       , -2.7055      , -0.0000      , 0.0000       , -2.7055      , 0.0000       , 0.0000       , 0.0000       , 0.0871       , 0.0000       , -4500.0000   , -4500.0000   , -4500.0000   , 100.0000     , -0.0015      , -0.0022      , -0.0008      , 5.0000       , 0.0000       , -0.0015      , 0.0000       , 50.0000      
847.9310     , 0.0000       , 10.0000      , 22.0000      , 0.0015       , 0.0219       , -2.7055      , -0.0000      , 0.0000       , -2.7055      , 0.0000       , 0.0000       , 0.0000       , 0.0871       , 0.0000       , -4500.0000   , -4500.0000   , -4500.0000   , 100.0000     , -0.0015      , -0.0022      , -0.0008      , 5.0000       , 0.0000       , -0.0015      , 0.0000       , 50.0000      
847.9640     , 0.0000       , 10.0000      , 22.0000      , 0.0015       , 0.0219       , -2.7055      , -0.0000      , 0.0001       , -2.7055      , 0.0000       , 0.0000       , 0.0000       , 0.0871       , 0.0000       , -4500.0000   , -4500.0000   , -4500.0000   , 100.0000     , -0.0015      , -0.0022      , -0.0008      , 5.0000       , 0.0000       , -0.0015      , 0.0000       , 49.9999      
